title,id,language,ontologyId,address,position,access,distance,categories,foodTypes,references,contacts,openingHours,province
Kampot Provincial Museum,here:pds:place:116w3fh6-319fa707b3f8ab62af430025b03952d8,en,here:cm:ontology:museum,"{'label': 'Kampot Provincial Museum, 070801 កំពត, កម្ពុជា', 'countryCode': 'KHM', 'countryName': 'កម្ពុជា', 'county': 'កំពត', 'city': 'កំពត', 'district': 'កំពង់កណ្ដាល', 'postalCode': '070801'}","{'lat': 10.60976, 'lng': 104.18328}","[{'lat': 10.60964, 'lng': 104.18321}]",105379,"[{'id': '300-3100-0028', 'name': 'History Museum', 'primary': True}]",,"[{'supplier': {'id': 'tripadvisor'}, 'id': '8842509'}]","[{'phone': [{'value': '+85512691832'}], 'www': [{'value': 'http://www.kampotmuseum.org'}]}]","[{'text': ['Tue, Thu, Sat: 15:00 - 18:00', 'Sun: 08:00 - 11:00, 15:00 - 18:00'], 'isOpen': False, 'structured': [{'start': 'T150000', 'duration': 'PT03H00M', 'recurrence': 'FREQ:DAILY;BYDAY:TU,TH,SA,SU'}, {'start': 'T080000', 'duration': 'PT03H00M', 'recurrence': 'FREQ:DAILY;BYDAY:SU'}]}]",Kampot
La Plantation,here:pds:place:116w3fh6-c7476338ef92452fbfdc0d6e151f983a,en,here:cm:ontology:museum,"{'label': 'La Plantation, 070801 កំពត, កម្ពុជា', 'countryCode': 'KHM', 'countryName': 'កម្ពុជា', 'county': 'កំពត', 'city': 'កំពត', 'district': 'កំពង់កណ្ដាល', 'postalCode': '070801'}","{'lat': 10.60807, 'lng': 104.18095}","[{'lat': 10.6082, 'lng': 104.18091}]",105592,"[{'id': '300-3100-0028', 'name': 'History Museum', 'primary': True}, {'id': '300-3100-0000', 'name': 'Museum'}]",,"[{'supplier': {'id': 'tripadvisor'}, 'id': '18083373'}, {'supplier': {'id': 'tripadvisor'}, 'id': '19296749'}]","[{'phone': [{'value': '+85517842505'}], 'www': [{'value': 'http://kampotpepper.com'}]}]",Not Available,Kampot
Kampot Museum,here:pds:place:116w3fh6-02b4801ff1714d779a5d31ccc719f6bb,en,here:cm:ontology:museum,"{'label': 'Kampot Museum, 070801 កំពត, កម្ពុជា', 'countryCode': 'KHM', 'countryName': 'កម្ពុជា', 'county': 'កំពត', 'city': 'កំពត', 'district': 'កំពង់កណ្ដាល', 'postalCode': '070801'}","{'lat': 10.60191, 'lng': 104.18066}","[{'lat': 10.60191, 'lng': 104.18065}]",106276,"[{'id': '300-3100-0028', 'name': 'History Museum', 'primary': True}, {'id': '700-7400-0147', 'name': 'Social Services'}]",,Not Available,[{'phone': [{'value': '+85512691832'}]}],Not Available,Kampot
Phnom Chhngok Cave Temple,here:pds:place:116w3fhs-e5df9694864b20bce1336ef6634c4601,en,here:cm:ontology:natural_geographical,"{'label': 'Phnom Chhngok Cave Temple, 070214 ទឹកឈូរ, កម្ពុជា', 'countryCode': 'KHM', 'countryName': 'កម្ពុជា', 'county': 'កំពត', 'city': 'ទឹកឈូរ', 'district': 'ត្រពាំងព្រីង', 'postalCode': '070214'}","{'lat': 10.64279, 'lng': 104.26812}","[{'lat': 10.64277, 'lng': 104.26798}]",101163,"[{'id': '350-3550-0336', 'name': 'Natural or Geographical', 'primary': True}]",,"[{'supplier': {'id': 'tripadvisor'}, 'id': '3224541'}]",Not Available,Not Available,Kampot
Lake Restaurant,here:pds:place:116w3fhm-5111c62fc3214d0d8ee6dba01de9480a,en,here:cm:ontology:restaurant,"{'label': 'Lake Restaurant, 070207 ទឹកឈូរ, កម្ពុជា', 'countryCode': 'KHM', 'countryName': 'កម្ពុជា', 'county': 'កំពត', 'city': 'ទឹកឈូរ', 'district': 'កូនសត្វ', 'postalCode': '070207'}","{'lat': 10.60273, 'lng': 104.29088}","[{'lat': 10.60261, 'lng': 104.29098}]",9615,"[{'id': '100-1000-0000', 'name': 'Restaurant', 'primary': True}]","[{'id': '200-000', 'name': 'Asian', 'primary': True}, {'id': '256-000', 'name': 'Cambodian'}, {'id': '800-050', 'name': 'Fast Food'}]","[{'supplier': {'id': 'tripadvisor'}, 'id': '27160624'}]","[{'phone': [{'value': '+85511223334'}, {'value': '+85561717536'}]}]","[{'text': ['Mon-Sun: 09:00 - 21:00'], 'isOpen': False, 'structured': [{'start': 'T090000', 'duration': 'PT12H00M', 'recurrence': 'FREQ:DAILY;BYDAY:MO,TU,WE,TH,FR,SA,SU'}]}]",Kampot
Gold Dragon Beer Garden,here:pds:place:116w3f72-7823ae0682eb4a37ad82f9b245edc283,en,here:cm:ontology:restaurant,"{'label': 'Gold Dragon Beer Garden, អេអេច123, 070612 កំពង់ត្រាច, កម្ពុជា', 'countryCode': 'KHM', 'countryName': 'កម្ពុជា', 'county': 'កំពត', 'city': 'កំពង់ត្រាច', 'district': 'ឫស្សីស្រុកខាងលិច', 'street': 'អេអេច123', 'postalCode': '070612'}","{'lat': 10.42854, 'lng': 104.4522}","[{'lat': 10.42862, 'lng': 104.45231}]",16656,"[{'id': '100-1000-0009', 'name': 'Fast Food', 'primary': True}, {'id': '100-1000-0000', 'name': 'Restaurant'}]","[{'id': '200-000', 'name': 'Asian', 'primary': True}, {'id': '101-000', 'name': 'American'}, {'id': '206-000', 'name': 'Vietnamese'}, {'id': '207-000', 'name': 'Korean'}, {'id': '256-000', 'name': 'Cambodian'}, {'id': '800-050', 'name': 'Fast Food'}]","[{'supplier': {'id': 'tripadvisor'}, 'id': '17425718'}]","[{'phone': [{'value': '+85581232003'}], 'www': [{'value': 'http://hatienvegas.com'}]}]",Not Available,Kampot
King of Crepes,here:pds:place:116w3fh7-1f6d68ab53194a159b49ea21812441e1,en,here:cm:ontology:restaurant,"{'label': 'King of Crepes, ផ្លូវជាតិ 33, 070202 ទឹកឈូរ, កម្ពុជា', 'countryCode': 'KHM', 'countryName': 'កម្ពុជា', 'county': 'កំពត', 'city': 'ទឹកឈូរ', 'district': 'ជុំក្រៀល', 'street': 'ផ្លូវជាតិ 33', 'postalCode': '070202'}","{'lat': 10.61067, 'lng': 104.21021}","[{'lat': 10.61101, 'lng': 104.21015}]",16904,"[{'id': '100-1000-0001', 'name': 'Casual Dining', 'primary': True}, {'id': '100-1000-0000', 'name': 'Restaurant'}]","[{'id': '800-078', 'name': 'Grill', 'primary': True}, {'id': '800-061', 'name': 'Breakfast'}]",Not Available,"[{'phone': [{'value': '+855888776418'}], 'www': [{'value': 'https://king-of-crepes.business.site'}]}]",Not Available,Kampot
Plant-Based Cafe Uguisu Sabou,here:pds:place:116w3fh6-f4371b2dea1242618aec0a8c512d14cd,en,here:cm:ontology:restaurant,"{'label': 'Plant-Based Cafe Uguisu Sabou, 070202 ទឹកឈូរ, កម្ពុជា', 'countryCode': 'KHM', 'countryName': 'កម្ពុជា', 'county': 'កំពត', 'city': 'ទឹកឈូរ', 'district': 'ជុំក្រៀល', 'postalCode': '070202'}","{'lat': 10.61225, 'lng': 104.20441}","[{'lat': 10.61231, 'lng': 104.20453}]",17540,"[{'id': '100-1000-0000', 'name': 'Restaurant', 'primary': True}]","[{'id': '800-083', 'name': 'Natural/Healthy', 'primary': True}, {'id': '800-077', 'name': 'Vegetarian'}]",Not Available,[{'phone': [{'value': '+85516207580'}]}],Not Available,Kampot
Arunreas Restaurant,here:pds:place:116w3fh6-b6097453248c41efb966181bce1ec31d,en,here:cm:ontology:restaurant,"{'label': 'Arunreas Restaurant, 070202 ទឹកឈូរ, កម្ពុជា', 'countryCode': 'KHM', 'countryName': 'កម្ពុជា', 'county': 'កំពត', 'city': 'ទឹកឈូរ', 'district': 'ជុំក្រៀល', 'postalCode': '070202'}","{'lat': 10.59391, 'lng': 104.19065}","[{'lat': 10.59403, 'lng': 104.19072}]",18000,"[{'id': '100-1000-0000', 'name': 'Restaurant', 'primary': True}]","[{'id': '256-000', 'name': 'Cambodian', 'primary': True}]",Not Available,[{'phone': [{'value': '+85512484951'}]}],Not Available,Kampot
Miss Saucy's Little Garden Restaurant,here:pds:place:116w3fh6-d7ac5b4f7dd32c3e00b9a5fdc82936dd,en,here:cm:ontology:restaurant,"{'label': ""Miss Saucy's Little Garden Restaurant, 070202 ទឹកឈូរ, កម្ពុជា"", 'countryCode': 'KHM', 'countryName': 'កម្ពុជា', 'county': 'កំពត', 'city': 'ទឹកឈូរ', 'district': 'ជុំក្រៀល', 'postalCode': '070202'}","{'lat': 10.60028, 'lng': 104.19234}","[{'lat': 10.60029, 'lng': 104.1922}]",18108,"[{'id': '100-1000-0000', 'name': 'Restaurant', 'primary': True}]","[{'id': '201-048', 'name': 'Chinese - Yunnan/Guizhou', 'primary': True}, {'id': '201-000', 'name': 'Chinese'}]","[{'supplier': {'id': 'tripadvisor'}, 'id': '23201758'}]","[{'phone': [{'value': '+855318658439'}], 'www': [{'value': 'http://www.misssaucys.com'}]}]","[{'text': ['Wed, Fri: 11:30 - 14:30, 17:30 - 21:00'], 'isOpen': False, 'structured': [{'start': 'T113000', 'duration': 'PT03H00M', 'recurrence': 'FREQ:DAILY;BYDAY:WE,FR'}, {'start': 'T173000', 'duration': 'PT03H30M', 'recurrence': 'FREQ:DAILY;BYDAY:WE,FR'}]}]",Kampot
Kampot Cafe,here:pds:place:116w3fh6-9a156284fc504164a9e79c7be102b195,en,here:cm:ontology:restaurant,"{'label': 'Kampot Cafe, 070801 កំពត, កម្ពុជា', 'countryCode': 'KHM', 'countryName': 'កម្ពុជា', 'county': 'កំពត', 'city': 'កំពត', 'district': 'កំពង់កណ្ដាល', 'postalCode': '070801'}","{'lat': 10.5965, 'lng': 104.18711}","[{'lat': 10.59641, 'lng': 104.18701}]",18467,"[{'id': '100-1000-0000', 'name': 'Restaurant', 'primary': True}, {'id': '100-1100-0010', 'name': 'Coffee Shop'}]","[{'id': '200-000', 'name': 'Asian', 'primary': True}]","[{'supplier': {'id': 'tripadvisor'}, 'id': '16141787'}]",[{'phone': [{'value': '+85592397093'}]}],Not Available,Kampot
Cafe Espresso Kampot,here:pds:place:116httek-61528cdc9dc601ff14d35b16a2ba1eff,en,here:cm:ontology:restaurant,"{'label': 'Cafe Espresso Kampot, ផ្លូវជាតិ 33, 070801 កំពត, កម្ពុជា', 'countryCode': 'KHM', 'countryName': 'កម្ពុជា', 'county': 'កំពត', 'city': 'កំពត', 'district': 'កំពង់កណ្ដាល', 'street': 'ផ្លូវជាតិ 33', 'postalCode': '070801'}","{'lat': 10.60685, 'lng': 104.1887}","[{'lat': 10.60698, 'lng': 104.18866}]",18777,"[{'id': '100-1000-0000', 'name': 'Restaurant', 'primary': True}, {'id': '100-1100-0010', 'name': 'Coffee Shop'}]","[{'id': '800-064', 'name': 'International', 'primary': True}]","[{'supplier': {'id': 'tripadvisor'}, 'id': '2349848'}]","[{'phone': [{'value': '+85592388736'}], 'www': [{'value': 'http://kampotcoffee.wixsite.com/espresso'}]}]","[{'text': ['Tue-Fri: 08:30 - 16:00', 'Sat, Sun: 09:00 - 16:30'], 'isOpen': False, 'structured': [{'start': 'T083000', 'duration': 'PT07H30M', 'recurrence': 'FREQ:DAILY;BYDAY:TU,WE,TH,FR'}, {'start': 'T090000', 'duration': 'PT07H30M', 'recurrence': 'FREQ:DAILY;BYDAY:SA,SU'}]}]",Kampot
The Java Cafe,here:pds:place:116w3fh6-716f24c21be942b5b64d86392061e4ee,en,here:cm:ontology:restaurant,"{'label': 'The Java Cafe, ផ្លូវជាតិ 33, 070801 កំពត, កម្ពុជា', 'countryCode': 'KHM', 'countryName': 'កម្ពុជា', 'county': 'កំពត', 'city': 'កំពត', 'district': 'កំពង់កណ្ដាល', 'street': 'ផ្លូវជាតិ 33', 'postalCode': '070801'}","{'lat': 10.60673, 'lng': 104.18816}","[{'lat': 10.60686, 'lng': 104.18819}]",18825,"[{'id': '100-1000-0000', 'name': 'Restaurant', 'primary': True}, {'id': '100-1100-0010', 'name': 'Coffee Shop'}]","[{'id': '200-000', 'name': 'Asian', 'primary': True}, {'id': '800-063', 'name': 'Ice Cream'}]","[{'supplier': {'id': 'tripadvisor'}, 'id': '13496694'}]","[{'phone': [{'value': '+85568234123'}], 'www': [{'value': 'https://www.facebook.com/TheJavaCafeKampot', 'categories': [{'id': '100-1000-0000'}]}]}]",Not Available,Kampot
Ooh la La Restaurant,here:pds:place:116w3fh6-928c82c87d224efb8ee65ca7cde32ebf,en,here:cm:ontology:restaurant,"{'label': 'Ooh la La Restaurant, 070801 កំពត, កម្ពុជា', 'countryCode': 'KHM', 'countryName': 'កម្ពុជា', 'county': 'កំពត', 'city': 'កំពត', 'district': 'កំពង់កណ្ដាល', 'postalCode': '070801'}","{'lat': 10.60104, 'lng': 104.18541}","[{'lat': 10.60116, 'lng': 104.18535}]",18835,"[{'id': '100-1000-0000', 'name': 'Restaurant', 'primary': True}]","[{'id': '800-078', 'name': 'Grill', 'primary': True}, {'id': '200-000', 'name': 'Asian'}, {'id': '256-000', 'name': 'Cambodian'}, {'id': '300-000', 'name': 'European'}, {'id': '310-000', 'name': 'Swiss'}, {'id': '800-083', 'name': 'Natural/Healthy'}]","[{'supplier': {'id': 'tripadvisor'}, 'id': '15561465'}]",[{'phone': [{'value': '+855886692442'}]}],"[{'text': ['Mon-Sat: 17:00 - 22:00'], 'isOpen': True, 'structured': [{'start': 'T170000', 'duration': 'PT05H00M', 'recurrence': 'FREQ:DAILY;BYDAY:MO,TU,WE,TH,FR,SA'}]}]",Kampot
1960 Restaurant,here:pds:place:116w3fh6-95817b1a879dc5f847a0aaefa65f6af3,en,here:cm:ontology:restaurant,"{'label': '1960 Restaurant, 070801 កំពត, កម្ពុជា', 'countryCode': 'KHM', 'countryName': 'កម្ពុជា', 'county': 'កំពត', 'city': 'កំពត', 'district': 'កំពង់កណ្ដាល', 'postalCode': '070801'}","{'lat': 10.60149, 'lng': 104.18492}","[{'lat': 10.60145, 'lng': 104.18479}]",18904,"[{'id': '100-1000-0000', 'name': 'Restaurant', 'primary': True}]","[{'id': '200-000', 'name': 'Asian', 'primary': True}, {'id': '256-000', 'name': 'Cambodian'}, {'id': '800-064', 'name': 'International'}]","[{'supplier': {'id': 'tripadvisor'}, 'id': '25170331'}]",[{'phone': [{'value': '+85512236458'}]}],"[{'text': ['Mon, Wed-Sun: 11:00 - 24:00'], 'isOpen': True, 'structured': [{'start': 'T110000', 'duration': 'PT13H00M', 'recurrence': 'FREQ:DAILY;BYDAY:MO,WE,TH,FR,SA,SU'}]}]",Kampot
Restaurant l'Entrecôte,here:pds:place:116w3fh6-c029e44153e64a7e89174ac34188d477,fr,here:cm:ontology:restaurant,"{'label': ""Restaurant l'Entrecôte, 070801 កំពត, កម្ពុជា"", 'countryCode': 'KHM', 'countryName': 'កម្ពុជា', 'county': 'កំពត', 'city': 'កំពត', 'district': 'កំពង់កណ្ដាល', 'postalCode': '070801'}","{'lat': 10.60681, 'lng': 104.18633}","[{'lat': 10.60693, 'lng': 104.18628}]",19009,"[{'id': '100-1000-0000', 'name': 'Restaurant', 'primary': True}]",,Not Available,[{'phone': [{'value': '+85577844940'}]}],Not Available,Kampot
Urban Kampot,here:pds:place:116w3fh6-0e5651c9934f4ad391984c7b0556a4e8,en,here:cm:ontology:restaurant,"{'label': 'Urban Kampot, 070801 កំពត, កម្ពុជា', 'countryCode': 'KHM', 'countryName': 'កម្ពុជា', 'county': 'កំពត', 'city': 'កំពត', 'district': 'កំពង់កណ្ដាល', 'postalCode': '070801'}","{'lat': 10.6028, 'lng': 104.18433}","[{'lat': 10.6028, 'lng': 104.18432}]",19021,"[{'id': '100-1000-0000', 'name': 'Restaurant', 'primary': True}]",,Not Available,Not Available,Not Available,Kampot
Darawin Natural BBQ,here:pds:place:116w3fh6-1b31ecde8de84786baeb882561d11911,en,here:cm:ontology:restaurant,"{'label': 'Darawin Natural BBQ, 070801 កំពត, កម្ពុជា', 'countryCode': 'KHM', 'countryName': 'កម្ពុជា', 'county': 'កំពត', 'city': 'កំពត', 'district': 'កំពង់កណ្ដាល', 'postalCode': '070801'}","{'lat': 10.60061, 'lng': 104.18321}","[{'lat': 10.60061, 'lng': 104.18321}]",19036,"[{'id': '100-1000-0000', 'name': 'Restaurant', 'primary': True}]","[{'id': '200-000', 'name': 'Asian', 'primary': True}, {'id': '256-000', 'name': 'Cambodian'}, {'id': '800-078', 'name': 'Grill'}]","[{'supplier': {'id': 'tripadvisor'}, 'id': '18946127'}]","[{'phone': [{'value': '+85569600899'}], 'www': [{'value': 'https://www.facebook.com/Darawin-Natural-BBQ-Kampot-308605052652500'}]}]",Not Available,Kampot
The Shore Café,here:pds:place:116w3fh6-a0f8681bc5b8e2ab446001f829cb23b2,en,here:cm:ontology:restaurant,"{'label': 'The Shore Café, 070801 កំពត, កម្ពុជា', 'countryCode': 'KHM', 'countryName': 'កម្ពុជា', 'county': 'កំពត', 'city': 'កំពត', 'district': 'កំពង់កណ្ដាល', 'postalCode': '070801'}","{'lat': 10.60061, 'lng': 104.18317}","[{'lat': 10.60061, 'lng': 104.18317}]",19040,"[{'id': '100-1000-0000', 'name': 'Restaurant', 'primary': True}]","[{'id': '200-000', 'name': 'Asian', 'primary': True}, {'id': '101-000', 'name': 'American'}, {'id': '256-000', 'name': 'Cambodian'}]","[{'supplier': {'id': 'tripadvisor'}, 'id': '25940727'}]",[{'phone': [{'value': '+85569362655'}]}],"[{'text': ['Mon-Sun: 07:00 - 18:00'], 'isOpen': False, 'structured': [{'start': 'T070000', 'duration': 'PT11H00M', 'recurrence': 'FREQ:DAILY;BYDAY:MO,TU,WE,TH,FR,SA,SU'}]}]",Kampot
Mad Monkey Hostel Kampot,here:pds:place:116aabd1-614a504bd99c0726c82ccc7cd2d26d41,en,here:cm:ontology:restaurant,"{'label': 'Mad Monkey Hostel Kampot, 070801 កំពត, កម្ពុជា', 'countryCode': 'KHM', 'countryName': 'កម្ពុជា', 'county': 'កំពត', 'city': 'កំពត', 'district': 'កំពង់កណ្ដាល', 'postalCode': '070801'}","{'lat': 10.60074, 'lng': 104.18321}","[{'lat': 10.60061, 'lng': 104.18322}]",19042,"[{'id': '100-1000-0000', 'name': 'Restaurant', 'primary': True}, {'id': '200-2000-0011', 'name': 'Bar or Pub'}, {'id': '500-5000-0053', 'name': 'Hotel'}, {'id': '500-5100-0055', 'name': 'Hostel'}]","[{'id': '200-000', 'name': 'Asian', 'primary': True}, {'id': '101-000', 'name': 'American'}]","[{'supplier': {'id': 'tripadvisor'}, 'id': '14937690'}, {'supplier': {'id': 'tripadvisor'}, 'id': '19260136'}, {'supplier': {'id': 'tripadvisor'}, 'id': '6584394'}]","[{'phone': [{'value': '+855968726525', 'categories': [{'id': '200-2000-0011'}, {'id': '500-5000-0053'}, {'id': '500-5100-0055'}]}, {'value': '+855968729525'}], 'www': [{'value': 'http://www.madmonkeyhostels.com/kampot', 'categories': [{'id': '200-2000-0011'}, {'id': '500-5000-0053'}, {'id': '500-5100-0055'}]}, {'value': 'https://www.madmonkeyhostels.com/kampot', 'categories': [{'id': '100-1000-0000'}, {'id': '500-5100-0055'}]}]}]","[{'categories': [{'id': '100-1000-0000'}], 'text': ['Mon-Sun: 07:00 - 24:00'], 'isOpen': True, 'structured': [{'start': 'T070000', 'duration': 'PT17H00M', 'recurrence': 'FREQ:DAILY;BYDAY:MO,TU,WE,TH,FR,SA,SU'}]}]",Kampot
Bamboo Kitchen,here:pds:place:116w3fh6-bc91bd9876254f959031d6ad961fe5a3,en,here:cm:ontology:restaurant,"{'label': 'Bamboo Kitchen, 070801 កំពត, កម្ពុជា', 'countryCode': 'KHM', 'countryName': 'កម្ពុជា', 'county': 'កំពត', 'city': 'កំពត', 'district': 'កំពង់កណ្ដាល', 'postalCode': '070801'}","{'lat': 10.60292, 'lng': 104.18414}","[{'lat': 10.60279, 'lng': 104.18419}]",19046,"[{'id': '100-1000-0000', 'name': 'Restaurant', 'primary': True}, {'id': '100-1000-0004', 'name': 'Food Market/Stall'}]","[{'id': '800-057', 'name': 'Pizza', 'primary': True}, {'id': '204-000', 'name': 'Southeast Asian'}, {'id': '256-000', 'name': 'Cambodian'}, {'id': '800-075', 'name': 'Seafood'}, {'id': '800-078', 'name': 'Grill'}, {'id': '800-083', 'name': 'Natural/Healthy'}]","[{'supplier': {'id': 'tripadvisor'}, 'id': '12585673'}]","[{'phone': [{'value': '+85593332429'}], 'www': [{'value': 'https://www.facebook.com/KhmerWesternFood.Kampot'}]}]",Not Available,Kampot
Salt Pepper Crab Restaurant,here:pds:place:116w3fh6-f83bef58efc64dd863ba2aa90bbc8f9b,en,here:cm:ontology:restaurant,"{'label': 'Salt Pepper Crab Restaurant, 070801 កំពត, កម្ពុជា', 'countryCode': 'KHM', 'countryName': 'កម្ពុជា', 'county': 'កំពត', 'city': 'កំពត', 'district': 'កំពង់កណ្ដាល', 'postalCode': '070801'}","{'lat': 10.6004, 'lng': 104.18237}","[{'lat': 10.60029, 'lng': 104.18229}]",19112,"[{'id': '100-1000-0000', 'name': 'Restaurant', 'primary': True}]","[{'id': '200-000', 'name': 'Asian', 'primary': True}, {'id': '256-000', 'name': 'Cambodian'}, {'id': '300-000', 'name': 'European'}, {'id': '800-075', 'name': 'Seafood'}]","[{'supplier': {'id': 'tripadvisor'}, 'id': '27530517'}]",[{'phone': [{'value': '+85510800816'}]}],Not Available,Kampot
Flowers Nanobrewery,here:pds:place:116aabd1-8a1f914c140e01fdd038b4994a069e76,en,here:cm:ontology:restaurant,"{'label': 'Flowers Nanobrewery, 070801 កំពត, កម្ពុជា', 'countryCode': 'KHM', 'countryName': 'កម្ពុជា', 'county': 'កំពត', 'city': 'កំពត', 'district': 'កំពង់កណ្ដាល', 'postalCode': '070801'}","{'lat': 10.60167, 'lng': 104.1828}","[{'lat': 10.60161, 'lng': 104.18292}]",19124,"[{'id': '100-1000-0000', 'name': 'Restaurant', 'primary': True}, {'id': '200-2000-0011', 'name': 'Bar or Pub'}, {'id': '300-3000-0350', 'name': 'Brewery'}]","[{'id': '203-000', 'name': 'Japanese', 'primary': True}]",Not Available,"[{'phone': [{'value': '+855977074421'}], 'www': [{'value': 'https://flowershomeandbrew.wordpress.com'}]}]",Not Available,Kampot
Sabay Sabay Bar,here:pds:place:116w3fh6-f48f79d5fc594fadb51cb574f16de62c,en,here:cm:ontology:restaurant,"{'label': 'Sabay Sabay Bar, 070801 កំពត, កម្ពុជា', 'countryCode': 'KHM', 'countryName': 'កម្ពុជា', 'county': 'កំពត', 'city': 'កំពត', 'district': 'កំពង់កណ្ដាល', 'postalCode': '070801'}","{'lat': 10.60082, 'lng': 104.18234}","[{'lat': 10.60076, 'lng': 104.18246}]",19133,"[{'id': '100-1000-0000', 'name': 'Restaurant', 'primary': True}]","[{'id': '200-000', 'name': 'Asian', 'primary': True}, {'id': '300-000', 'name': 'European'}]","[{'supplier': {'id': 'tripadvisor'}, 'id': '19653475'}, {'supplier': {'id': 'tripadvisor'}, 'id': '19654566'}]",[{'www': [{'value': 'https://www.facebook.com/SABAYSABAYBARKAMPOT'}]}],Not Available,Kampot
Raging Bull Sports Bar Kampot,here:pds:place:116w3fh6-d360d29303bd49a8afcc8bb90ae473aa,en,here:cm:ontology:restaurant,"{'label': 'Raging Bull Sports Bar Kampot, 070801 កំពត, កម្ពុជា', 'countryCode': 'KHM', 'countryName': 'កម្ពុជា', 'county': 'កំពត', 'city': 'កំពត', 'district': 'កំពង់កណ្ដាល', 'postalCode': '070801'}","{'lat': 10.60763, 'lng': 104.18502}","[{'lat': 10.6076, 'lng': 104.18503}]",19178,"[{'id': '100-1000-0000', 'name': 'Restaurant', 'primary': True}, {'id': '200-2000-0011', 'name': 'Bar or Pub'}]",,Not Available,Not Available,Not Available,Kampot
Somewhere,here:pds:place:116w3fh6-2d558e0885ca49d69f83bc9c99cd7da4,en,here:cm:ontology:restaurant,"{'label': 'Somewhere, 070801 កំពត, កម្ពុជា', 'countryCode': 'KHM', 'countryName': 'កម្ពុជា', 'county': 'កំពត', 'city': 'កំពត', 'district': 'កំពង់កណ្ដាល', 'postalCode': '070801'}","{'lat': 10.60523, 'lng': 104.18367}","[{'lat': 10.6051, 'lng': 104.18372}]",19198,"[{'id': '100-1000-0000', 'name': 'Restaurant', 'primary': True}]","[{'id': '300-000', 'name': 'European', 'primary': True}, {'id': '205-000', 'name': 'Thai'}, {'id': '301-000', 'name': 'French'}]","[{'supplier': {'id': 'tripadvisor'}, 'id': '12725401'}]","[{'phone': [{'value': '+855968347396'}], 'www': [{'value': 'http://somewherekampot.com'}]}]",Not Available,Kampot
The Green Room Kampot,here:pds:place:116w3fh6-eb210a993c7faae91139fed719ae11d4,en,here:cm:ontology:restaurant,"{'label': 'The Green Room Kampot, 070801 កំពត, កម្ពុជា', 'countryCode': 'KHM', 'countryName': 'កម្ពុជា', 'county': 'កំពត', 'city': 'កំពត', 'district': 'កំពង់កណ្ដាល', 'postalCode': '070801'}","{'lat': 10.60522, 'lng': 104.18363}","[{'lat': 10.60509, 'lng': 104.18368}]",19202,"[{'id': '100-1000-0000', 'name': 'Restaurant', 'primary': True}, {'id': '200-2000-0011', 'name': 'Bar or Pub'}]","[{'id': '200-000', 'name': 'Asian', 'primary': True}, {'id': '103-000', 'name': 'Canadian'}, {'id': '256-000', 'name': 'Cambodian'}, {'id': '308-000', 'name': 'British Isles'}]","[{'supplier': {'id': 'tripadvisor'}, 'id': '25288244'}]",[{'phone': [{'value': '+85581773742'}]}],"[{'text': ['Mon-Sat: 09:00 - 24:00'], 'isOpen': True, 'structured': [{'start': 'T090000', 'duration': 'PT15H00M', 'recurrence': 'FREQ:DAILY;BYDAY:MO,TU,WE,TH,FR,SA'}]}]",Kampot
Countryside Food Kampot,here:pds:place:116w3fh6-02fb1e3710c3410eacfecbfa17ae54d0,en,here:cm:ontology:restaurant,"{'label': 'Countryside Food Kampot, ផ្លូវជាតិ 33, 070801 កំពត, កម្ពុជា', 'countryCode': 'KHM', 'countryName': 'កម្ពុជា', 'county': 'កំពត', 'city': 'កំពត', 'district': 'កំពង់កណ្ដាល', 'street': 'ផ្លូវជាតិ 33', 'postalCode': '070801'}","{'lat': 10.60839, 'lng': 104.18509}","[{'lat': 10.60851, 'lng': 104.18516}]",19207,"[{'id': '100-1000-0000', 'name': 'Restaurant', 'primary': True}]","[{'id': '200-000', 'name': 'Asian', 'primary': True}, {'id': '256-000', 'name': 'Cambodian'}, {'id': '800-075', 'name': 'Seafood'}]","[{'supplier': {'id': 'tripadvisor'}, 'id': '14921831'}]","[{'phone': [{'value': '+85589784597'}], 'www': [{'value': 'http://www.facebook.com/CountrySideFoodKampot'}]}]","[{'text': ['Mon-Thu, Sat, Sun: 13:00 - 21:00'], 'isOpen': False, 'structured': [{'start': 'T130000', 'duration': 'PT08H00M', 'recurrence': 'FREQ:DAILY;BYDAY:MO,TU,WE,TH,SA,SU'}]}]",Kampot
Cambodhi - Vegan Cuisine,here:pds:place:116w3fh6-c1f70b9b973ddc659dbc163a5aae0fdd,en,here:cm:ontology:restaurant,"{'label': 'Cambodhi - Vegan Cuisine, 070802 កំពត, កម្ពុជា', 'countryCode': 'KHM', 'countryName': 'កម្ពុជា', 'county': 'កំពត', 'city': 'កំពត', 'district': 'ក្រាំងអំពិល', 'postalCode': '070802'}","{'lat': 10.61538, 'lng': 104.18839}","[{'lat': 10.61551, 'lng': 104.18839}]",19239,"[{'id': '100-1000-0000', 'name': 'Restaurant', 'primary': True}]","[{'id': '800-083', 'name': 'Natural/Healthy', 'primary': True}, {'id': '200-000', 'name': 'Asian'}, {'id': '256-000', 'name': 'Cambodian'}, {'id': '300-000', 'name': 'European'}, {'id': '800-076', 'name': 'Vegan'}]","[{'supplier': {'id': 'tripadvisor'}, 'id': '26822962'}]","[{'phone': [{'value': '+85516583150'}], 'www': [{'value': 'http://www.cambodhi.com/eat'}]}]","[{'text': ['Mon, Tue, Thu-Sun: 07:30 - 20:00'], 'isOpen': False, 'structured': [{'start': 'T073000', 'duration': 'PT12H30M', 'recurrence': 'FREQ:DAILY;BYDAY:MO,TU,TH,FR,SA,SU'}]}]",Kampot
វាសនា សប្បាយ សប្បាយ,here:pds:place:116w3fh6-bfb14897faeafd889a297e83f551b2e3,km,here:cm:ontology:restaurant,"{'label': 'វាសនា សប្បាយ សប្បាយ, 070802 កំពត, កម្ពុជា', 'countryCode': 'KHM', 'countryName': 'កម្ពុជា', 'county': 'កំពត', 'city': 'កំពត', 'district': 'ក្រាំងអំពិល', 'postalCode': '070802'}","{'lat': 10.61175, 'lng': 104.18639}","[{'lat': 10.61175, 'lng': 104.18621}]",19246,"[{'id': '100-1000-0000', 'name': 'Restaurant', 'primary': True}]",,Not Available,"[{'phone': [{'value': '+85590888278'}], 'email': [{'value': 'newravy168@gmail.com'}]}]",Not Available,Kampot
Hot Roast Company,here:pds:place:116w3fh6-d20165096c5b8f85a0bfb525f4cf539f,en,here:cm:ontology:restaurant,"{'label': 'Hot Roast Company, 070801 កំពត, កម្ពុជា', 'countryCode': 'KHM', 'countryName': 'កម្ពុជា', 'county': 'កំពត', 'city': 'កំពត', 'district': 'កំពង់កណ្ដាល', 'postalCode': '070801'}","{'lat': 10.6073, 'lng': 104.18412}","[{'lat': 10.6073, 'lng': 104.18412}]",19251,"[{'id': '100-1000-0000', 'name': 'Restaurant', 'primary': True}, {'id': '200-2000-0011', 'name': 'Bar or Pub'}]","[{'id': '200-000', 'name': 'Asian', 'primary': True}, {'id': '256-000', 'name': 'Cambodian'}, {'id': '308-000', 'name': 'British Isles'}, {'id': '800-078', 'name': 'Grill'}]","[{'supplier': {'id': 'tripadvisor'}, 'id': '23343513'}]",[{'phone': [{'value': '+855964775036'}]}],"[{'text': ['Mon, Wed-Sun: 09:00 - 20:00'], 'isOpen': False, 'structured': [{'start': 'T090000', 'duration': 'PT11H00M', 'recurrence': 'FREQ:DAILY;BYDAY:MO,WE,TH,FR,SA,SU'}]}]",Kampot
Monkey Republic Restaurant,here:pds:place:116w3fh6-0360af85479041ebba37cf5efcd452b6,en,here:cm:ontology:restaurant,"{'label': 'Monkey Republic Restaurant, 070801 កំពត, កម្ពុជា', 'countryCode': 'KHM', 'countryName': 'កម្ពុជា', 'county': 'កំពត', 'city': 'កំពត', 'district': 'កំពង់កណ្ដាល', 'postalCode': '070801'}","{'lat': 10.6074, 'lng': 104.18398}","[{'lat': 10.60727, 'lng': 104.18402}]",19269,"[{'id': '100-1000-0000', 'name': 'Restaurant', 'primary': True}, {'id': '100-1000-0001', 'name': 'Casual Dining'}, {'id': '200-2000-0000', 'name': 'Nightlife-Entertainment'}, {'id': '200-2000-0011', 'name': 'Bar or Pub'}, {'id': '800-8600-0191', 'name': 'Fitness/Health Club'}]","[{'id': '800-083', 'name': 'Natural/Healthy', 'primary': True}, {'id': '200-000', 'name': 'Asian'}, {'id': '800-078', 'name': 'Grill'}]","[{'supplier': {'id': 'tripadvisor'}, 'id': '11893965'}, {'supplier': {'id': 'tripadvisor'}, 'id': '25329125'}]",[{'phone': [{'value': '+85512848390'}]}],"[{'categories': [{'id': '100-1000-0000'}], 'text': ['Mon-Sun: 07:30 - 22:00'], 'isOpen': True, 'structured': [{'start': 'T073000', 'duration': 'PT14H30M', 'recurrence': 'FREQ:DAILY;BYDAY:MO,TU,WE,TH,FR,SA,SU'}]}, {'categories': [{'id': '800-8600-0191'}], 'text': ['Mon-Sun: 08:00 - 20:00'], 'isOpen': False, 'structured': [{'start': 'T080000', 'duration': 'PT12H00M', 'recurrence': 'FREQ:DAILY;BYDAY:MO,TU,WE,TH,FR,SA,SU'}]}]",Kampot
Jacks Place,here:pds:place:116w3fh6-a74aaa89f17b43fb8f425bc2ac8effb9,en,here:cm:ontology:restaurant,"{'label': 'Jacks Place, 070801 កំពត, កម្ពុជា', 'countryCode': 'KHM', 'countryName': 'កម្ពុជា', 'county': 'កំពត', 'city': 'កំពត', 'district': 'កំពង់កណ្ដាល', 'postalCode': '070801'}","{'lat': 10.60702, 'lng': 104.18371}","[{'lat': 10.60715, 'lng': 104.18367}]",19278,"[{'id': '100-1000-0000', 'name': 'Restaurant', 'primary': True}, {'id': '100-1000-0001', 'name': 'Casual Dining'}, {'id': '500-5000-0000', 'name': 'Hotel/Motel'}]","[{'id': '200-000', 'name': 'Asian', 'primary': True}, {'id': '256-000', 'name': 'Cambodian'}, {'id': '300-000', 'name': 'European'}]","[{'supplier': {'id': 'tripadvisor'}, 'id': '8353487'}]","[{'phone': [{'value': '+85512719872'}], 'www': [{'value': 'https://www.facebook.com/kampotjackguesthouse', 'categories': [{'id': '100-1000-0000'}]}]}]","[{'categories': [{'id': '100-1000-0000'}], 'text': ['Mon-Sun: 07:00 - 21:30'], 'isOpen': True, 'structured': [{'start': 'T070000', 'duration': 'PT14H30M', 'recurrence': 'FREQ:DAILY;BYDAY:MO,TU,WE,TH,FR,SA,SU'}]}]",Kampot
Sunrise Cafe,here:pds:place:116w3fh6-3031d31f461d83bfb8c33dc2103360ca,en,here:cm:ontology:restaurant,"{'label': 'Sunrise Cafe, 070801 កំពត, កម្ពុជា', 'countryCode': 'KHM', 'countryName': 'កម្ពុជា', 'county': 'កំពត', 'city': 'កំពត', 'district': 'កំពង់កណ្ដាល', 'postalCode': '070801'}","{'lat': 10.6071, 'lng': 104.18349}","[{'lat': 10.60709, 'lng': 104.18349}]",19304,"[{'id': '100-1000-0009', 'name': 'Fast Food', 'primary': True}, {'id': '100-1100-0010', 'name': 'Coffee Shop'}]","[{'id': '308-000', 'name': 'British Isles', 'primary': True}, {'id': '800-050', 'name': 'Fast Food'}]","[{'supplier': {'id': 'tripadvisor'}, 'id': '25574486'}]","[{'phone': [{'value': '+85577931318'}], 'www': [{'value': 'https://www.facebook.com/sunrisestreetcafe'}]}]","[{'text': ['Mon-Sat: 07:30 - 14:30'], 'isOpen': False, 'structured': [{'start': 'T073000', 'duration': 'PT07H00M', 'recurrence': 'FREQ:DAILY;BYDAY:MO,TU,WE,TH,FR,SA'}]}]",Kampot
Dara Win Brother,here:pds:place:116w3fh6-b0f913fe5cd5442b81123cca630cdaf0,en,here:cm:ontology:restaurant,"{'label': 'Dara Win Brother, 070801 កំពត, កម្ពុជា', 'countryCode': 'KHM', 'countryName': 'កម្ពុជា', 'county': 'កំពត', 'city': 'កំពត', 'district': 'កំពង់កណ្ដាល', 'postalCode': '070801'}","{'lat': 10.60673, 'lng': 104.1833}","[{'lat': 10.60671, 'lng': 104.18329}]",19305,"[{'id': '100-1000-0000', 'name': 'Restaurant', 'primary': True}]","[{'id': '256-000', 'name': 'Cambodian', 'primary': True}]",Not Available,Not Available,Not Available,Kampot
Kalo's Bar,here:pds:place:116w3fh6-49e72da1d84b912c14d584227f1d76c0,en,here:cm:ontology:restaurant,"{'label': ""Kalo's Bar, 070801 កំពត, កម្ពុជា"", 'countryCode': 'KHM', 'countryName': 'កម្ពុជា', 'county': 'កំពត', 'city': 'កំពត', 'district': 'កំពង់កណ្ដាល', 'postalCode': '070801'}","{'lat': 10.60647, 'lng': 104.18315}","[{'lat': 10.60643, 'lng': 104.18302}]",19308,"[{'id': '100-1000-0000', 'name': 'Restaurant', 'primary': True}]","[{'id': '301-000', 'name': 'French', 'primary': True}]","[{'supplier': {'id': 'tripadvisor'}, 'id': '26125599'}]",Not Available,Not Available,Kampot
The Magic Sponge Restaurant,here:pds:place:116aabd1-0b4def6a1885038b263b2844303708fc,en,here:cm:ontology:restaurant,"{'label': 'The Magic Sponge Restaurant, 070801 កំពត, កម្ពុជា', 'countryCode': 'KHM', 'countryName': 'កម្ពុជា', 'county': 'កំពត', 'city': 'កំពត', 'district': 'កំពង់កណ្ដាល', 'postalCode': '070801'}","{'lat': 10.60722, 'lng': 104.18345}","[{'lat': 10.60709, 'lng': 104.18349}]",19313,"[{'id': '100-1000-0000', 'name': 'Restaurant', 'primary': True}]","[{'id': '256-000', 'name': 'Cambodian', 'primary': True}]","[{'supplier': {'id': 'tripadvisor'}, 'id': '4155341'}]","[{'phone': [{'value': '+85517946428'}], 'www': [{'value': 'http://www.magicspongekampot.com'}]}]","[{'text': ['Mon-Sun: 06:30 - 21:00'], 'isOpen': False, 'structured': [{'start': 'T063000', 'duration': 'PT14H30M', 'recurrence': 'FREQ:DAILY;BYDAY:MO,TU,WE,TH,FR,SA,SU'}]}]",Kampot
Tiki Garden,here:pds:place:116w3fh6-45979f61ae1e7245dff3913dd145aed6,en,here:cm:ontology:restaurant,"{'label': 'Tiki Garden, 070801 កំពត, កម្ពុជា', 'countryCode': 'KHM', 'countryName': 'កម្ពុជា', 'county': 'កំពត', 'city': 'កំពត', 'district': 'កំពង់កណ្ដាល', 'postalCode': '070801'}","{'lat': 10.60649, 'lng': 104.18222}","[{'lat': 10.6065, 'lng': 104.18222}]",19401,"[{'id': '100-1000-0000', 'name': 'Restaurant', 'primary': True}, {'id': '500-5000-0053', 'name': 'Hotel'}]","[{'id': '800-078', 'name': 'Grill', 'primary': True}, {'id': '200-000', 'name': 'Asian'}, {'id': '256-000', 'name': 'Cambodian'}, {'id': '301-000', 'name': 'French'}]","[{'supplier': {'id': 'tripadvisor'}, 'id': '25985284'}, {'supplier': {'id': 'tripadvisor'}, 'id': '26008942'}]",[{'phone': [{'value': '+85581904861'}]}],"[{'categories': [{'id': '100-1000-0000'}], 'text': ['Mon, Wed-Sun: 17:30 - 23:00'], 'isOpen': True, 'structured': [{'start': 'T173000', 'duration': 'PT05H30M', 'recurrence': 'FREQ:DAILY;BYDAY:MO,WE,TH,FR,SA,SU'}]}]",Kampot
Arvi,here:pds:place:116w3fh6-2406acc4a66e55f6ea41f6343fd96387,en,here:cm:ontology:restaurant,"{'label': 'Arvi, 070805 កំពត, កម្ពុជា', 'countryCode': 'KHM', 'countryName': 'កម្ពុជា', 'county': 'កំពត', 'city': 'កំពត', 'district': 'ត្រើយកោះ', 'postalCode': '070805'}","{'lat': 10.59723, 'lng': 104.17817}","[{'lat': 10.59717, 'lng': 104.17805}]",19404,"[{'id': '100-1000-0000', 'name': 'Restaurant', 'primary': True}]","[{'id': '200-000', 'name': 'Asian', 'primary': True}, {'id': '256-000', 'name': 'Cambodian'}, {'id': '800-066', 'name': 'Fusion'}]","[{'supplier': {'id': 'tripadvisor'}, 'id': '22996570'}]","[{'phone': [{'value': '+85578775542'}], 'www': [{'value': 'http://amber-kampot.com'}]}]","[{'text': ['Mon-Sun: 06:00 - 10:00, 12:00 - 14:00, 18:00 - 22:00'], 'isOpen': True, 'structured': [{'start': 'T060000', 'duration': 'PT04H00M', 'recurrence': 'FREQ:DAILY;BYDAY:MO,TU,WE,TH,FR,SA,SU'}, {'start': 'T120000', 'duration': 'PT02H00M', 'recurrence': 'FREQ:DAILY;BYDAY:MO,TU,WE,TH,FR,SA,SU'}, {'start': 'T180000', 'duration': 'PT04H00M', 'recurrence': 'FREQ:DAILY;BYDAY:MO,TU,WE,TH,FR,SA,SU'}]}]",Kampot
The Mango Tree Restaurant,here:pds:place:116w3fh6-3db760653aeb4f47aaae3a6f7688ae78,en,here:cm:ontology:restaurant,"{'label': 'The Mango Tree Restaurant, 070801 កំពត, កម្ពុជា', 'countryCode': 'KHM', 'countryName': 'កម្ពុជា', 'county': 'កំពត', 'city': 'កំពត', 'district': 'កំពង់កណ្ដាល', 'postalCode': '070801'}","{'lat': 10.60693, 'lng': 104.18227}","[{'lat': 10.60706, 'lng': 104.18231}]",19416,"[{'id': '100-1000-0000', 'name': 'Restaurant', 'primary': True}]","[{'id': '200-000', 'name': 'Asian', 'primary': True}, {'id': '256-000', 'name': 'Cambodian'}, {'id': '300-000', 'name': 'European'}]","[{'supplier': {'id': 'tripadvisor'}, 'id': '20316216'}]",[{'phone': [{'value': '+855888358407'}]}],Not Available,Kampot
Happy Smile Pizza,here:pds:place:116w3fh6-440a0fa7153047a6beb2e328300f0ce4,en,here:cm:ontology:restaurant,"{'label': 'Happy Smile Pizza, 070801 កំពត, កម្ពុជា', 'countryCode': 'KHM', 'countryName': 'កម្ពុជា', 'county': 'កំពត', 'city': 'កំពត', 'district': 'កំពង់កណ្ដាល', 'postalCode': '070801'}","{'lat': 10.60614, 'lng': 104.18184}","[{'lat': 10.60626, 'lng': 104.18178}]",19422,"[{'id': '100-1000-0000', 'name': 'Restaurant', 'primary': True}]","[{'id': '800-057', 'name': 'Pizza', 'primary': True}, {'id': '205-000', 'name': 'Thai'}, {'id': '206-000', 'name': 'Vietnamese'}, {'id': '304-000', 'name': 'Italian'}, {'id': '800-075', 'name': 'Seafood'}]","[{'supplier': {'id': 'tripadvisor'}, 'id': '13294091'}]","[{'phone': [{'value': '+85512213272'}], 'www': [{'value': 'http://www.happysmilepizza.simplesite.com'}]}]",Not Available,Kampot
Cafe Malay - the Garden Café,here:pds:place:116aabd1-7cb5fd93d9960112026e580008bf1141,en,here:cm:ontology:restaurant,"{'label': 'Cafe Malay - the Garden Café, 070801 កំពត, កម្ពុជា', 'countryCode': 'KHM', 'countryName': 'កម្ពុជា', 'county': 'កំពត', 'city': 'កំពត', 'district': 'កំពង់កណ្ដាល', 'postalCode': '070801'}","{'lat': 10.60702, 'lng': 104.18201}","[{'lat': 10.60715, 'lng': 104.18205}]",19446,"[{'id': '100-1000-0000', 'name': 'Restaurant', 'primary': True}, {'id': '100-1100-0010', 'name': 'Coffee Shop'}]","[{'id': '300-000', 'name': 'European', 'primary': True}, {'id': '256-000', 'name': 'Cambodian'}, {'id': '302-000', 'name': 'German'}]","[{'supplier': {'id': 'tripadvisor'}, 'id': '2355160'}]",[{'phone': [{'value': '+85570379947'}]}],"[{'text': ['Mon-Sat: 08:00 - 17:00'], 'isOpen': False, 'structured': [{'start': 'T080000', 'duration': 'PT09H00M', 'recurrence': 'FREQ:DAILY;BYDAY:MO,TU,WE,TH,FR,SA'}]}]",Kampot
Rockstar Kampot,here:pds:place:116w3fh6-bd43a2716127e45aaa91f014f0845920,en,here:cm:ontology:restaurant,"{'label': 'Rockstar Kampot, 070801 កំពត, កម្ពុជា', 'countryCode': 'KHM', 'countryName': 'កម្ពុជា', 'county': 'កំពត', 'city': 'កំពត', 'district': 'កំពង់កណ្ដាល', 'postalCode': '070801'}","{'lat': 10.60978, 'lng': 104.1833}","[{'lat': 10.60964, 'lng': 104.18321}]",19451,"[{'id': '100-1000-0000', 'name': 'Restaurant', 'primary': True}]","[{'id': '200-000', 'name': 'Asian', 'primary': True}, {'id': '201-000', 'name': 'Chinese'}]","[{'supplier': {'id': 'tripadvisor'}, 'id': '25228843'}]","[{'phone': [{'value': '+85510888093'}], 'www': [{'value': 'https://www.facebook.com/profile.php?id=100086689639680&mibextid=zbwkwl'}]}]","[{'text': ['Mon-Sun: 00:00 - 01:00, 16:00 - 24:00'], 'isOpen': True, 'structured': [{'start': 'T160000', 'duration': 'PT09H00M', 'recurrence': 'FREQ:DAILY;BYDAY:MO,TU,WE,TH,FR,SA,SU'}]}]",Kampot
Palmtown Café & Restaurant,here:pds:place:116w3fh6-bbb10389e67e03598cdcb73bfb526660,en,here:cm:ontology:restaurant,"{'label': 'Palmtown Café & Restaurant, 070801 កំពត, កម្ពុជា', 'countryCode': 'KHM', 'countryName': 'កម្ពុជា', 'county': 'កំពត', 'city': 'កំពត', 'district': 'កំពង់កណ្ដាល', 'postalCode': '070801'}","{'lat': 10.60976, 'lng': 104.18328}","[{'lat': 10.60964, 'lng': 104.18321}]",19452,"[{'id': '100-1000-0000', 'name': 'Restaurant', 'primary': True}]","[{'id': '200-000', 'name': 'Asian', 'primary': True}, {'id': '256-000', 'name': 'Cambodian'}]","[{'supplier': {'id': 'tripadvisor'}, 'id': '25231714'}]",[{'phone': [{'value': '+85599656289'}]}],"[{'text': ['Mon-Sun: 09:00 - 22:30'], 'isOpen': True, 'structured': [{'start': 'T090000', 'duration': 'PT13H30M', 'recurrence': 'FREQ:DAILY;BYDAY:MO,TU,WE,TH,FR,SA,SU'}]}]",Kampot
Darawin Minimart,here:pds:place:116w3fh6-b6877b71628693a41bbc8105e0427ef4,en,here:cm:ontology:restaurant,"{'label': 'Darawin Minimart, 070801 កំពត, កម្ពុជា', 'countryCode': 'KHM', 'countryName': 'កម្ពុជា', 'county': 'កំពត', 'city': 'កំពត', 'district': 'កំពង់កណ្ដាល', 'postalCode': '070801'}","{'lat': 10.60976, 'lng': 104.18328}","[{'lat': 10.60964, 'lng': 104.18321}]",19452,"[{'id': '100-1000-0009', 'name': 'Fast Food', 'primary': True}, {'id': '100-1100-0010', 'name': 'Coffee Shop'}]","[{'id': '200-000', 'name': 'Asian', 'primary': True}, {'id': '300-000', 'name': 'European'}, {'id': '800-050', 'name': 'Fast Food'}]","[{'supplier': {'id': 'tripadvisor'}, 'id': '26857715'}]","[{'phone': [{'value': '+85581798666'}], 'www': [{'value': 'https://www.facebook.com/profile.php?id=100063639783398&mibextid=lqqj4d'}]}]","[{'text': ['Mon-Sun: 08:00 - 23:00'], 'isOpen': True, 'structured': [{'start': 'T080000', 'duration': 'PT15H00M', 'recurrence': 'FREQ:DAILY;BYDAY:MO,TU,WE,TH,FR,SA,SU'}]}]",Kampot
The Wooden House Armando's,here:pds:place:116w3fh6-2b631c8002e04f5c3905f83900109832,en,here:cm:ontology:restaurant,"{'label': ""The Wooden House Armando's, 070801 កំពត, កម្ពុជា"", 'countryCode': 'KHM', 'countryName': 'កម្ពុជា', 'county': 'កំពត', 'city': 'កំពត', 'district': 'កំពង់កណ្ដាល', 'postalCode': '070801'}","{'lat': 10.60976, 'lng': 104.18328}","[{'lat': 10.60964, 'lng': 104.18321}]",19452,"[{'id': '100-1000-0000', 'name': 'Restaurant', 'primary': True}]","[{'id': '300-000', 'name': 'European', 'primary': True}, {'id': '304-000', 'name': 'Italian'}, {'id': '372-000', 'name': 'Mediterranean'}, {'id': '800-057', 'name': 'Pizza'}]","[{'supplier': {'id': 'tripadvisor'}, 'id': '25243791'}]",[{'phone': [{'value': '+85511443347'}]}],Not Available,Kampot
Phum Tree Café,here:pds:place:116w3fh6-0b15c9f9536e44eea526297674425fa7,en,here:cm:ontology:restaurant,"{'label': 'Phum Tree Café, 070801 កំពត, កម្ពុជា', 'countryCode': 'KHM', 'countryName': 'កម្ពុជា', 'county': 'កំពត', 'city': 'កំពត', 'district': 'កំពង់កណ្ដាល', 'postalCode': '070801'}","{'lat': 10.60976, 'lng': 104.18328}","[{'lat': 10.60964, 'lng': 104.18321}]",19452,"[{'id': '100-1000-0007', 'name': 'Cafeteria', 'primary': True}]","[{'id': '200-000', 'name': 'Asian', 'primary': True}, {'id': '256-000', 'name': 'Cambodian'}, {'id': '800-057', 'name': 'Pizza'}]","[{'supplier': {'id': 'tripadvisor'}, 'id': '25330312'}]","[{'phone': [{'value': '+85587876948'}], 'www': [{'value': 'sonas.org'}]}]","[{'text': ['Mon-Sun: 07:30 - 21:30'], 'isOpen': True, 'structured': [{'start': 'T073000', 'duration': 'PT14H00M', 'recurrence': 'FREQ:DAILY;BYDAY:MO,TU,WE,TH,FR,SA,SU'}]}]",Kampot
Garden Cafe,here:pds:place:116aabd1-2be3f882ad8e01a323043b13341d1516,en,here:cm:ontology:restaurant,"{'label': 'Garden Cafe, 070801 កំពត, កម្ពុជា', 'countryCode': 'KHM', 'countryName': 'កម្ពុជា', 'county': 'កំពត', 'city': 'កំពត', 'district': 'កំពង់កណ្ដាល', 'postalCode': '070801'}","{'lat': 10.60721, 'lng': 104.18134}","[{'lat': 10.60733, 'lng': 104.18137}]",19522,"[{'id': '100-1000-0000', 'name': 'Restaurant', 'primary': True}, {'id': '200-2000-0011', 'name': 'Bar or Pub'}, {'id': '200-2200-0020', 'name': 'Performing Arts Center'}]","[{'id': '200-000', 'name': 'Asian', 'primary': True}, {'id': '256-000', 'name': 'Cambodian'}, {'id': '301-000', 'name': 'French'}, {'id': '304-000', 'name': 'Italian'}, {'id': '308-000', 'name': 'British Isles'}]","[{'supplier': {'id': 'tripadvisor'}, 'id': '7366064'}]","[{'phone': [{'value': '+85517449448'}, {'value': '+855975585736', 'categories': [{'id': '200-2000-0011'}]}]}]","[{'categories': [{'id': '100-1000-0000'}], 'text': ['Mon, Tue, Thu-Sun: 16:00 - 22:00'], 'isOpen': True, 'structured': [{'start': 'T160000', 'duration': 'PT06H00M', 'recurrence': 'FREQ:DAILY;BYDAY:MO,TU,TH,FR,SA,SU'}]}]",Kampot
Chameleon Bistro & Cocktail Bar,here:pds:place:116w3fh6-3f5f353f3ce44297aeae2c899bfaa168,en,here:cm:ontology:restaurant,"{'label': 'Chameleon Bistro & Cocktail Bar, 070801 កំពត, កម្ពុជា', 'countryCode': 'KHM', 'countryName': 'កម្ពុជា', 'county': 'កំពត', 'city': 'កំពត', 'district': 'កំពង់កណ្ដាល', 'postalCode': '070801'}","{'lat': 10.607, 'lng': 104.181}","[{'lat': 10.60687, 'lng': 104.18104}]",19546,"[{'id': '100-1000-0000', 'name': 'Restaurant', 'primary': True}, {'id': '100-1000-0001', 'name': 'Casual Dining'}, {'id': '200-2000-0011', 'name': 'Bar or Pub'}]","[{'id': '200-000', 'name': 'Asian', 'primary': True}, {'id': '300-000', 'name': 'European'}, {'id': '370-000', 'name': 'East European'}, {'id': '376-000', 'name': 'Polish'}, {'id': '800-083', 'name': 'Natural/Healthy'}]","[{'supplier': {'id': 'tripadvisor'}, 'id': '15335929'}]","[{'phone': [{'value': '+855962941560'}], 'www': [{'value': 'https://chameleon-bistro-coctail-bar.business.site'}]}]","[{'categories': [{'id': '100-1000-0000'}], 'text': ['Mon-Sun: 08:30 - 21:30'], 'isOpen': True, 'structured': [{'start': 'T083000', 'duration': 'PT13H00M', 'recurrence': 'FREQ:DAILY;BYDAY:MO,TU,WE,TH,FR,SA,SU'}]}]",Kampot
Kama,here:pds:place:116aabd1-10867261c6570515db8faa2992bb5488,en,here:cm:ontology:restaurant,"{'label': 'Kama, 070801 កំពត, កម្ពុជា', 'countryCode': 'KHM', 'countryName': 'កម្ពុជា', 'county': 'កំពត', 'city': 'កំពត', 'district': 'កំពង់កណ្ដាល', 'postalCode': '070801'}","{'lat': 10.60734, 'lng': 104.18106}","[{'lat': 10.60733, 'lng': 104.18106}]",19556,"[{'id': '100-1000-0000', 'name': 'Restaurant', 'primary': True}, {'id': '100-1100-0010', 'name': 'Coffee Shop'}]","[{'id': '200-000', 'name': 'Asian', 'primary': True}, {'id': '201-000', 'name': 'Chinese'}, {'id': '256-000', 'name': 'Cambodian'}]","[{'supplier': {'id': 'tripadvisor'}, 'id': '8071487'}]","[{'phone': [{'value': '+855962554393'}], 'www': [{'value': 'http://www.keksoon.com'}]}]","[{'text': ['Mon-Sun: 08:00 - 22:00'], 'isOpen': True, 'structured': [{'start': 'T080000', 'duration': 'PT14H00M', 'recurrence': 'FREQ:DAILY;BYDAY:MO,TU,WE,TH,FR,SA,SU'}]}]",Kampot
Happy Chef Pizza,here:pds:place:116w3fh6-19c746d1d8844ee88e61eac4d73dc8dc,en,here:cm:ontology:restaurant,"{'label': 'Happy Chef Pizza, 070801 កំពត, កម្ពុជា', 'countryCode': 'KHM', 'countryName': 'កម្ពុជា', 'county': 'កំពត', 'city': 'កំពត', 'district': 'កំពង់កណ្ដាល', 'postalCode': '070801'}","{'lat': 10.60557, 'lng': 104.18022}","[{'lat': 10.6057, 'lng': 104.18018}]",19557,"[{'id': '100-1000-0000', 'name': 'Restaurant', 'primary': True}]","[{'id': '800-057', 'name': 'Pizza', 'primary': True}, {'id': '200-000', 'name': 'Asian'}, {'id': '256-000', 'name': 'Cambodian'}, {'id': '304-000', 'name': 'Italian'}, {'id': '800-078', 'name': 'Grill'}]","[{'supplier': {'id': 'tripadvisor'}, 'id': '13428027'}]","[{'phone': [{'value': '+85516207710'}], 'www': [{'value': 'https://www.facebook.com/happychefpizza'}]}]",Not Available,Kampot
Masalatwist,here:pds:place:116w3fh6-cc798db104834508a7816924effeba89,en,here:cm:ontology:restaurant,"{'label': 'Masalatwist, 070801 កំពត, កម្ពុជា', 'countryCode': 'KHM', 'countryName': 'កម្ពុជា', 'county': 'កំពត', 'city': 'កំពត', 'district': 'កំពង់កណ្ដាល', 'postalCode': '070801'}","{'lat': 10.60715, 'lng': 104.18095}","[{'lat': 10.60728, 'lng': 104.18091}]",19558,"[{'id': '100-1000-0000', 'name': 'Restaurant', 'primary': True}]","[{'id': '202-000', 'name': 'Indian', 'primary': True}, {'id': '208-000', 'name': 'Pakistani'}, {'id': '250-000', 'name': 'Middle Eastern'}]","[{'supplier': {'id': 'tripadvisor'}, 'id': '19141289'}]","[{'phone': [{'value': '+855962088544'}], 'www': [{'value': 'https://www.facebook.com/Masala-Twist-Restaurant-103646434323935'}]}]","[{'text': ['Mon-Sun: 10:00 - 22:00'], 'isOpen': True, 'structured': [{'start': 'T100000', 'duration': 'PT12H00M', 'recurrence': 'FREQ:DAILY;BYDAY:MO,TU,WE,TH,FR,SA,SU'}]}]",Kampot
The Cruise - Kampot,here:pds:place:116w3fh6-4408227d435c9d3c1db76f625ea56b3d,en,here:cm:ontology:restaurant,"{'label': 'The Cruise - Kampot, 070801 កំពត, កម្ពុជា', 'countryCode': 'KHM', 'countryName': 'កម្ពុជា', 'county': 'កំពត', 'city': 'កំពត', 'district': 'កំពង់កណ្ដាល', 'postalCode': '070801'}","{'lat': 10.60747, 'lng': 104.18107}","[{'lat': 10.60734, 'lng': 104.18111}]",19561,"[{'id': '100-1000-0000', 'name': 'Restaurant', 'primary': True}]","[{'id': '101-002', 'name': 'American - Southwestern', 'primary': True}, {'id': '200-000', 'name': 'Asian'}, {'id': '800-080', 'name': 'Soup'}]","[{'supplier': {'id': 'tripadvisor'}, 'id': '26721155'}]","[{'phone': [{'value': '+85515200045'}], 'www': [{'value': 'http://www.facebook.com/profile.php?id=61551719447569'}]}]","[{'text': ['Mon-Sun: 00:00 - 02:00, 07:00 - 24:00'], 'isOpen': True, 'structured': [{'start': 'T070000', 'duration': 'PT19H00M', 'recurrence': 'FREQ:DAILY;BYDAY:MO,TU,WE,TH,FR,SA,SU'}]}]",Kampot
Pilgrim,here:pds:place:116w3fh6-06afc39452ca40e8939a32e82cb45bff,en,here:cm:ontology:restaurant,"{'label': 'Pilgrim, 070801 កំពត, កម្ពុជា', 'countryCode': 'KHM', 'countryName': 'កម្ពុជា', 'county': 'កំពត', 'city': 'កំពត', 'district': 'កំពង់កណ្ដាល', 'postalCode': '070801'}","{'lat': 10.60707, 'lng': 104.18072}","[{'lat': 10.6072, 'lng': 104.18067}]",19577,"[{'id': '100-1000-0000', 'name': 'Restaurant', 'primary': True}, {'id': '100-1100-0010', 'name': 'Coffee Shop'}]","[{'id': '300-000', 'name': 'European', 'primary': True}, {'id': '250-000', 'name': 'Middle Eastern'}, {'id': '372-000', 'name': 'Mediterranean'}, {'id': '800-083', 'name': 'Natural/Healthy'}]","[{'supplier': {'id': 'tripadvisor'}, 'id': '17553728'}]",[{'phone': [{'value': '+855964057970'}]}],"[{'text': ['Mon, Tue, Thu-Sun: 08:00 - 16:00'], 'isOpen': False, 'structured': [{'start': 'T080000', 'duration': 'PT08H00M', 'recurrence': 'FREQ:DAILY;BYDAY:MO,TU,TH,FR,SA,SU'}]}]",Kampot
Happy Chef Pizza,here:pds:place:116httek-b9c1ea09b7720e53efd57a6b13edd5a9,en,here:cm:ontology:restaurant,"{'label': 'Happy Chef Pizza, 070801 កំពត, កម្ពុជា', 'countryCode': 'KHM', 'countryName': 'កម្ពុជា', 'county': 'កំពត', 'city': 'កំពត', 'district': 'កំពង់កណ្ដាល', 'postalCode': '070801'}","{'lat': 10.60558, 'lng': 104.17997}","[{'lat': 10.60554, 'lng': 104.17984}]",19583,"[{'id': '100-1000-0000', 'name': 'Restaurant', 'primary': True}]","[{'id': '101-003', 'name': 'American-Barbecue', 'primary': True}, {'id': '256-000', 'name': 'Cambodian'}, {'id': '800-057', 'name': 'Pizza'}]",Not Available,Not Available,Not Available,Kampot
Crepe N' Roll Pancakes,here:pds:place:116w3fh6-5f81f5c1c6ca608c54614e5d5d4ff9b8,en,here:cm:ontology:restaurant,"{'label': ""Crepe N' Roll Pancakes, 070801 កំពត, កម្ពុជា"", 'countryCode': 'KHM', 'countryName': 'កម្ពុជា', 'county': 'កំពត', 'city': 'កំពត', 'district': 'កំពង់កណ្ដាល', 'postalCode': '070801'}","{'lat': 10.60739, 'lng': 104.1808}","[{'lat': 10.60726, 'lng': 104.18084}]",19584,"[{'id': '100-1000-0000', 'name': 'Restaurant', 'primary': True}]","[{'id': '200-000', 'name': 'Asian', 'primary': True}, {'id': '256-000', 'name': 'Cambodian'}, {'id': '301-000', 'name': 'French'}]","[{'supplier': {'id': 'tripadvisor'}, 'id': '27434040'}]",[{'www': [{'value': 'https://www.facebook.com/profile.php?id=61555770719326'}]}],"[{'text': ['Mon-Sun: 08:00 - 21:00'], 'isOpen': False, 'structured': [{'start': 'T080000', 'duration': 'PT13H00M', 'recurrence': 'FREQ:DAILY;BYDAY:MO,TU,WE,TH,FR,SA,SU'}]}]",Kampot
Smashed Burger Co.,here:pds:place:116w3fh6-e71624b6948c1aeb6c442bb2ebdcdfbf,en,here:cm:ontology:restaurant,"{'label': 'Smashed Burger Co., 070801 កំពត, កម្ពុជា', 'countryCode': 'KHM', 'countryName': 'កម្ពុជា', 'county': 'កំពត', 'city': 'កំពត', 'district': 'កំពង់កណ្ដាល', 'postalCode': '070801'}","{'lat': 10.60642, 'lng': 104.18027}","[{'lat': 10.60644, 'lng': 104.18041}]",19591,"[{'id': '100-1000-0009', 'name': 'Fast Food', 'primary': True}, {'id': '100-1000-0000', 'name': 'Restaurant'}]","[{'id': '800-067', 'name': 'Burgers', 'primary': True}, {'id': '101-000', 'name': 'American'}, {'id': '800-050', 'name': 'Fast Food'}]","[{'supplier': {'id': 'tripadvisor'}, 'id': '25288368'}]","[{'phone': [{'value': '+85587313741'}], 'www': [{'value': 'fb.com/smashedkh'}]}]","[{'text': ['Mon, Wed-Sun: 11:00 - 22:00'], 'isOpen': True, 'structured': [{'start': 'T110000', 'duration': 'PT11H00M', 'recurrence': 'FREQ:DAILY;BYDAY:MO,WE,TH,FR,SA,SU'}]}]",Kampot
Viva Cambodia,here:pds:place:116w3fhd-8f7335637c8de3064e2c877cf0171af0,en,here:cm:ontology:restaurant,"{'label': 'Viva Cambodia, 070203 ទឹកឈូរ, កម្ពុជា', 'countryCode': 'KHM', 'countryName': 'កម្ពុជា', 'county': 'កំពត', 'city': 'ទឹកឈូរ', 'district': 'កំពង់ក្រែង', 'postalCode': '070203'}","{'lat': 10.64685, 'lng': 104.17518}","[{'lat': 10.64672, 'lng': 104.17516}]",22743,"[{'id': '100-1000-0000', 'name': 'Restaurant', 'primary': True}]","[{'id': '300-000', 'name': 'European', 'primary': True}, {'id': '301-000', 'name': 'French'}, {'id': '310-000', 'name': 'Swiss'}]","[{'supplier': {'id': 'tripadvisor'}, 'id': '24902497'}]","[{'phone': [{'value': '+855962177559'}], 'www': [{'value': 'http://vivacambodia.com/?fbclid=IwAR35hZy9RpRGZ1wSlS9MFpls9HSA9RE9yxydthu-rRdcuApYveDGyqSpQa0'}]}]","[{'text': ['Tue-Sun: 12:00 - 22:30'], 'isOpen': True, 'structured': [{'start': 'T120000', 'duration': 'PT10H30M', 'recurrence': 'FREQ:DAILY;BYDAY:TU,WE,TH,FR,SA,SU'}]}]",Kampot
The Hideaway,here:pds:place:116w3fhd-e7dc48d7914d48938614112ef1234182,en,here:cm:ontology:restaurant,"{'label': 'The Hideaway, 070203 ទឹកឈូរ, កម្ពុជា', 'countryCode': 'KHM', 'countryName': 'កម្ពុជា', 'county': 'កំពត', 'city': 'ទឹកឈូរ', 'district': 'កំពង់ក្រែង', 'postalCode': '070203'}","{'lat': 10.64812, 'lng': 104.17252}","[{'lat': 10.64824, 'lng': 104.17258}]",22805,"[{'id': '100-1000-0000', 'name': 'Restaurant', 'primary': True}, {'id': '200-2000-0011', 'name': 'Bar or Pub'}, {'id': '500-5100-0000', 'name': 'Lodging'}, {'id': '500-5100-0057', 'name': 'Guest House'}]","[{'id': '101-000', 'name': 'American', 'primary': True}, {'id': '102-000', 'name': 'Mexican'}, {'id': '308-000', 'name': 'British Isles'}]","[{'supplier': {'id': 'tripadvisor'}, 'id': '17607173'}, {'supplier': {'id': 'tripadvisor'}, 'id': '25149963'}, {'supplier': {'id': 'tripadvisor'}, 'id': '25161829'}]","[{'phone': [{'value': '+85516367304'}], 'www': [{'value': 'https://www.facebook.com/hideawaykampot/?_rdc=1&_rdr', 'categories': [{'id': '500-5100-0000'}]}]}]","[{'categories': [{'id': '100-1000-0000'}, {'id': '200-2000-0011'}], 'text': ['Tue-Sun: 16:00 - 21:00'], 'isOpen': False, 'structured': [{'start': 'T160000', 'duration': 'PT05H00M', 'recurrence': 'FREQ:DAILY;BYDAY:TU,WE,TH,FR,SA,SU'}]}]",Kampot
Kayak Park,here:pds:place:116w3fhd-3b96dacf8f594562942dd0203869a1f5,en,here:cm:ontology:restaurant,"{'label': 'Kayak Park, 070203 ទឹកឈូរ, កម្ពុជា', 'countryCode': 'KHM', 'countryName': 'កម្ពុជា', 'county': 'កំពត', 'city': 'ទឹកឈូរ', 'district': 'កំពង់ក្រែង', 'postalCode': '070203'}","{'lat': 10.6482, 'lng': 104.17204}","[{'lat': 10.64845, 'lng': 104.17217}]",22830,"[{'id': '500-5100-0000', 'name': 'Lodging', 'primary': True}, {'id': '100-1000-0000', 'name': 'Restaurant'}]",,Not Available,Not Available,Not Available,Kampot
បុប្ផាព្រៃ ខេត្តកំពត,here:pds:place:116w3fhd-98988016830c44b79449c7a496d82ce3,km,here:cm:ontology:restaurant,"{'label': 'បុប្ផាព្រៃ ខេត្តកំពត, 070203 ទឹកឈូរ, កម្ពុជា', 'countryCode': 'KHM', 'countryName': 'កម្ពុជា', 'county': 'កំពត', 'city': 'ទឹកឈូរ', 'district': 'កំពង់ក្រែង', 'postalCode': '070203'}","{'lat': 10.64766, 'lng': 104.17259}","[{'lat': 10.64812, 'lng': 104.17282}]",22841,"[{'id': '100-1000-0000', 'name': 'Restaurant', 'primary': True}]",,Not Available,[{'phone': [{'value': '+85587922268'}]}],Not Available,Kampot
Sila's Restaurant and Samurai Saloon,here:pds:place:116w3fhd-01c0cf69e465d13b0d30ceed002505cd,en,here:cm:ontology:restaurant,"{'label': ""Sila's Restaurant and Samurai Saloon, 070804 កំពត, កម្ពុជា"", 'countryCode': 'KHM', 'countryName': 'កម្ពុជា', 'county': 'កំពត', 'city': 'កំពត', 'district': 'អណ្ដូងខ្មែរ', 'postalCode': '070804'}","{'lat': 10.63654, 'lng': 104.15942}","[{'lat': 10.63649, 'lng': 104.15929}]",24700,"[{'id': '100-1000-0000', 'name': 'Restaurant', 'primary': True}]","[{'id': '200-000', 'name': 'Asian', 'primary': True}, {'id': '256-000', 'name': 'Cambodian'}]","[{'supplier': {'id': 'tripadvisor'}, 'id': '17231176'}]",[{'phone': [{'value': '+855712339393'}]}],"[{'text': ['Mon-Fri, Sun: 10:00 - 21:00', 'Sat: 10:00 - 12:00'], 'isOpen': False, 'structured': [{'start': 'T100000', 'duration': 'PT11H00M', 'recurrence': 'FREQ:DAILY;BYDAY:MO,TU,WE,TH,FR,SU'}, {'start': 'T100000', 'duration': 'PT02H00M', 'recurrence': 'FREQ:DAILY;BYDAY:SA'}]}]",Kampot
Chaplin Kampot Cafe,here:pds:place:116w3fh6-8ac4348e0e634b4db27980a7bd6f92fd,en,here:cm:ontology:restaurant,"{'label': 'Chaplin Kampot Cafe, 070802 កំពត, កម្ពុជា', 'countryCode': 'KHM', 'countryName': 'កម្ពុជា', 'county': 'កំពត', 'city': 'កំពត', 'district': 'ក្រាំងអំពិល', 'postalCode': '070802'}","{'lat': 10.61653, 'lng': 104.18302}","[{'lat': 10.6164, 'lng': 104.18304}]",25087,"[{'id': '100-1000-0000', 'name': 'Restaurant', 'primary': True}]",,Not Available,[{'phone': [{'value': '+855965450970'}]}],Not Available,Kampot
Mittapheap Hotel and Restaurant,here:pds:place:116w3fh6-d6f4b19016b641028bb31c3843995862,en,here:cm:ontology:restaurant,"{'label': 'Mittapheap Hotel and Restaurant, 070803 កំពត, កម្ពុជា', 'countryCode': 'KHM', 'countryName': 'កម្ពុជា', 'county': 'កំពត', 'city': 'កំពត', 'district': 'កំពង់បាយ', 'postalCode': '070803'}","{'lat': 10.61646, 'lng': 104.17973}","[{'lat': 10.61658, 'lng': 104.17967}]",25277,"[{'id': '100-1000-0000', 'name': 'Restaurant', 'primary': True}]",,"[{'supplier': {'id': 'tripadvisor'}, 'id': '7182965'}]",[{'phone': [{'value': '+85577999879'}]}],Not Available,Kampot
Hemingway Bar,here:pds:place:116w3fh6-db762220b03e4887acc6cb60f922e1c5,en,here:cm:ontology:restaurant,"{'label': 'Hemingway Bar, 070803 កំពត, កម្ពុជា', 'countryCode': 'KHM', 'countryName': 'កម្ពុជា', 'county': 'កំពត', 'city': 'កំពត', 'district': 'កំពង់បាយ', 'postalCode': '070803'}","{'lat': 10.61635, 'lng': 104.17957}","[{'lat': 10.61635, 'lng': 104.17957}]",25297,"[{'id': '100-1000-0000', 'name': 'Restaurant', 'primary': True}]","[{'id': '300-000', 'name': 'European', 'primary': True}]","[{'supplier': {'id': 'tripadvisor'}, 'id': '8094609'}]",[{'phone': [{'value': '+855718835000'}]}],Not Available,Kampot
Eco Vegetarian Kampot,here:pds:place:116w3fh6-f31a082855844e5883efb1d5a936efdb,en,here:cm:ontology:restaurant,"{'label': 'Eco Vegetarian Kampot, 070803 កំពត, កម្ពុជា', 'countryCode': 'KHM', 'countryName': 'កម្ពុជា', 'county': 'កំពត', 'city': 'កំពត', 'district': 'កំពង់បាយ', 'postalCode': '070803'}","{'lat': 10.61613, 'lng': 104.17851}","[{'lat': 10.61607, 'lng': 104.17854}]",25378,"[{'id': '100-1000-0000', 'name': 'Restaurant', 'primary': True}]","[{'id': '800-077', 'name': 'Vegetarian', 'primary': True}]",Not Available,Not Available,Not Available,Kampot
Chantara's Kitchen,here:pds:place:116w3fh6-3e134939ea524c679faa6fc279ea3cdb,en,here:cm:ontology:restaurant,"{'label': ""Chantara's Kitchen, 070803 កំពត, កម្ពុជា"", 'countryCode': 'KHM', 'countryName': 'កម្ពុជា', 'county': 'កំពត', 'city': 'កំពត', 'district': 'កំពង់បាយ', 'postalCode': '070803'}","{'lat': 10.61805, 'lng': 104.17401}","[{'lat': 10.61809, 'lng': 104.17413}]",25456,"[{'id': '100-1000-0000', 'name': 'Restaurant', 'primary': True}]",,Not Available,[{'phone': [{'value': '+855977444984'}]}],Not Available,Kampot
Heng Heng 2,here:pds:place:116w3fh6-e3f42978ff2cb67858522a2395c66dbc,en,here:cm:ontology:restaurant,"{'label': 'Heng Heng 2, អេអេច123, 070803 កំពត, កម្ពុជា', 'countryCode': 'KHM', 'countryName': 'កម្ពុជា', 'county': 'កំពត', 'city': 'កំពត', 'district': 'កំពង់បាយ', 'street': 'អេអេច123', 'postalCode': '070803'}","{'lat': 10.61496, 'lng': 104.17797}","[{'lat': 10.61497, 'lng': 104.17796}]",25519,"[{'id': '100-1000-0000', 'name': 'Restaurant', 'primary': True}]","[{'id': '800-078', 'name': 'Grill', 'primary': True}, {'id': '800-080', 'name': 'Soup'}]","[{'supplier': {'id': 'tripadvisor'}, 'id': '23730606'}]",[{'phone': [{'value': '+85510885287'}]}],"[{'text': ['Mon-Sun: 16:00 - 22:00'], 'isOpen': True, 'structured': [{'start': 'T160000', 'duration': 'PT06H00M', 'recurrence': 'FREQ:DAILY;BYDAY:MO,TU,WE,TH,FR,SA,SU'}]}]",Kampot
Kampot Diamond Hotel,here:pds:place:116w3fh6-9e101b5d025f46638f2aa05c41b69303,en,here:cm:ontology:restaurant,"{'label': 'Kampot Diamond Hotel, 070803 កំពត, កម្ពុជា', 'countryCode': 'KHM', 'countryName': 'កម្ពុជា', 'county': 'កំពត', 'city': 'កំពត', 'district': 'កំពង់បាយ', 'postalCode': '070803'}","{'lat': 10.61424, 'lng': 104.17822}","[{'lat': 10.61418, 'lng': 104.1781}]",25574,"[{'id': '500-5000-0053', 'name': 'Hotel', 'primary': True}, {'id': '100-1000-0007', 'name': 'Cafeteria'}]",,Not Available,"[{'phone': [{'value': '+855979820999'}], 'www': [{'value': 'http://kampotdiamondhotel.com'}]}]",Not Available,Kampot
Chicken Delice,here:pds:place:116w3fh6-cffff4f8d8014e2c94cab6199cdab53a,en,here:cm:ontology:restaurant,"{'label': 'Chicken Delice, 070803 កំពត, កម្ពុជា', 'countryCode': 'KHM', 'countryName': 'កម្ពុជា', 'county': 'កំពត', 'city': 'កំពត', 'district': 'កំពង់បាយ', 'postalCode': '070803'}","{'lat': 10.61632, 'lng': 104.17451}","[{'lat': 10.61636, 'lng': 104.17464}]",25589,"[{'id': '100-1000-0000', 'name': 'Restaurant', 'primary': True}]","[{'id': '101-000', 'name': 'American', 'primary': True}, {'id': '301-000', 'name': 'French'}, {'id': '800-062', 'name': 'Chicken'}]","[{'supplier': {'id': 'tripadvisor'}, 'id': '15266390'}]",[{'phone': [{'value': '+85578547304'}]}],Not Available,Kampot
Sloppy John's - Baguette & BBQ Bliss,here:pds:place:116w3fh6-ee433b75058d4647ab5908ac3e982db3,en,here:cm:ontology:restaurant,"{'label': ""Sloppy John's - Baguette & BBQ Bliss, 070802 កំពត, កម្ពុជា"", 'countryCode': 'KHM', 'countryName': 'កម្ពុជា', 'county': 'កំពត', 'city': 'កំពត', 'district': 'ក្រាំងអំពិល', 'postalCode': '070802'}","{'lat': 10.61167, 'lng': 104.1815}","[{'lat': 10.61179, 'lng': 104.18144}]",25637,"[{'id': '100-1000-0000', 'name': 'Restaurant', 'primary': True}]","[{'id': '101-003', 'name': 'American-Barbecue', 'primary': True}, {'id': '800-078', 'name': 'Grill'}]",Not Available,"[{'phone': [{'value': '+85578325969'}], 'www': [{'value': 'http://www.sloppyjohns.com'}]}]",Not Available,Kampot
The Funky Durian,here:pds:place:116w3fh6-69fac093f4d14f02a7befd5b4d24cd40,en,here:cm:ontology:restaurant,"{'label': 'The Funky Durian, 070802 កំពត, កម្ពុជា', 'countryCode': 'KHM', 'countryName': 'កម្ពុជា', 'county': 'កំពត', 'city': 'កំពត', 'district': 'ក្រាំងអំពិល', 'postalCode': '070802'}","{'lat': 10.61042, 'lng': 104.18182}","[{'lat': 10.61042, 'lng': 104.18181}]",25740,"[{'id': '100-1000-0000', 'name': 'Restaurant', 'primary': True}]",,"[{'supplier': {'id': 'tripadvisor'}, 'id': '19126987'}]","[{'phone': [{'value': '+85593807051'}], 'www': [{'value': 'https://www.facebook.com/The-Funky-Durian-bar-574580883022123'}]}]","[{'text': ['Mon-Sun: 00:00 - 03:00, 17:00 - 24:00'], 'isOpen': True, 'structured': [{'start': 'T170000', 'duration': 'PT10H00M', 'recurrence': 'FREQ:DAILY;BYDAY:MO,TU,WE,TH,FR,SA,SU'}]}]",Kampot
Bodhi Villa,here:pds:place:116w3fh6-11c568fc8076446b800c55ecf61b40e8,en,here:cm:ontology:restaurant,"{'label': 'Bodhi Villa, 070804 កំពត, កម្ពុជា', 'countryCode': 'KHM', 'countryName': 'កម្ពុជា', 'county': 'កំពត', 'city': 'កំពត', 'district': 'អណ្ដូងខ្មែរ', 'postalCode': '070804'}","{'lat': 10.61933, 'lng': 104.16698}","[{'lat': 10.61928, 'lng': 104.16685}]",25759,"[{'id': '100-1000-0000', 'name': 'Restaurant', 'primary': True}]",,Not Available,"[{'phone': [{'value': '+85512728884'}], 'www': [{'value': 'http://www.bodhivilla.com'}]}]",Not Available,Kampot
Pheng Pheng Restaurant,here:pds:place:116w3fh6-e75e8cb95de9ef69f208899f73a01cbd,en,here:cm:ontology:restaurant,"{'label': 'Pheng Pheng Restaurant, អូអ៊ែល-3, 070803 កំពត, កម្ពុជា', 'countryCode': 'KHM', 'countryName': 'កម្ពុជា', 'county': 'កំពត', 'city': 'កំពត', 'district': 'កំពង់បាយ', 'street': 'អូអ៊ែល-3', 'postalCode': '070803'}","{'lat': 10.61333, 'lng': 104.17604}","[{'lat': 10.61339, 'lng': 104.17616}]",25784,"[{'id': '100-1000-0000', 'name': 'Restaurant', 'primary': True}]","[{'id': '200-000', 'name': 'Asian', 'primary': True}, {'id': '256-000', 'name': 'Cambodian'}, {'id': '800-075', 'name': 'Seafood'}]","[{'supplier': {'id': 'tripadvisor'}, 'id': '7603679'}]",[{'phone': [{'value': '+85512856785'}]}],Not Available,Kampot
Rosa Bamboo Bar and Restaurant,here:pds:place:116w3fh6-3b5b9ea5ca1241aea3950e48af41c69f,en,here:cm:ontology:restaurant,"{'label': 'Rosa Bamboo Bar and Restaurant, អូអ៊ែល-3, 070803 កំពត, កម្ពុជា', 'countryCode': 'KHM', 'countryName': 'កម្ពុជា', 'county': 'កំពត', 'city': 'កំពត', 'district': 'កំពង់បាយ', 'street': 'អូអ៊ែល-3', 'postalCode': '070803'}","{'lat': 10.613, 'lng': 104.17653}","[{'lat': 10.61294, 'lng': 104.17641}]",25787,"[{'id': '100-1000-0000', 'name': 'Restaurant', 'primary': True}]","[{'id': '203-026', 'name': 'Japanese - Sushi', 'primary': True}, {'id': '200-000', 'name': 'Asian'}, {'id': '204-000', 'name': 'Southeast Asian'}, {'id': '800-078', 'name': 'Grill'}]","[{'supplier': {'id': 'tripadvisor'}, 'id': '13326137'}]",[{'phone': [{'value': '+85515852428'}]}],Not Available,Kampot
អាហារដ្នាន ភ្នំ ខៀវ,here:pds:place:116w3fh6-1250f6d29f5d43c09be983273e694b09,km,here:cm:ontology:restaurant,"{'label': 'អាហារដ្នាន ភ្នំ ខៀវ, 070801 កំពត, កម្ពុជា', 'countryCode': 'KHM', 'countryName': 'កម្ពុជា', 'county': 'កំពត', 'city': 'កំពត', 'district': 'កំពង់កណ្ដាល', 'postalCode': '070801'}","{'lat': 10.61001, 'lng': 104.18155}","[{'lat': 10.61002, 'lng': 104.18141}]",25794,"[{'id': '100-1000-0000', 'name': 'Restaurant', 'primary': True}]","[{'id': '200-000', 'name': 'Asian', 'primary': True}]",Not Available,Not Available,Not Available,Kampot
Deva Cafe,here:pds:place:116aabd1-7da8d47a5c96058a33a6d51bde868f4b,en,here:cm:ontology:restaurant,"{'label': 'Deva Cafe, 070804 កំពត, កម្ពុជា', 'countryCode': 'KHM', 'countryName': 'កម្ពុជា', 'county': 'កំពត', 'city': 'កំពត', 'district': 'អណ្ដូងខ្មែរ', 'postalCode': '070804'}","{'lat': 10.61873, 'lng': 104.16722}","[{'lat': 10.61868, 'lng': 104.16709}]",25799,"[{'id': '100-1000-0000', 'name': 'Restaurant', 'primary': True}]","[{'id': '800-066', 'name': 'Fusion', 'primary': True}]","[{'supplier': {'id': 'tripadvisor'}, 'id': '9553739'}]","[{'phone': [{'value': '+85512276621'}], 'www': [{'value': 'http://devacafe.org'}]}]","[{'text': ['Mon, Wed-Sun: 08:00 - 21:00'], 'isOpen': False, 'structured': [{'start': 'T080000', 'duration': 'PT13H00M', 'recurrence': 'FREQ:DAILY;BYDAY:MO,WE,TH,FR,SA,SU'}]}]",Kampot
Deva Cafe Kampot,here:pds:place:116w3fh6-7472e59ee52e4c989c187a77616d06d5,en,here:cm:ontology:restaurant,"{'label': 'Deva Cafe Kampot, 070804 កំពត, កម្ពុជា', 'countryCode': 'KHM', 'countryName': 'កម្ពុជា', 'county': 'កំពត', 'city': 'កំពត', 'district': 'អណ្ដូងខ្មែរ', 'postalCode': '070804'}","{'lat': 10.61844, 'lng': 104.16733}","[{'lat': 10.61839, 'lng': 104.1672}]",25819,"[{'id': '100-1000-0000', 'name': 'Restaurant', 'primary': True}]","[{'id': '800-083', 'name': 'Natural/Healthy', 'primary': True}]",Not Available,"[{'phone': [{'value': '+85512276621'}], 'www': [{'value': 'http://devacafe.org'}]}]",Not Available,Kampot
Aroma House,here:pds:place:116aabd1-f9b3ab4485f603ea22bb4dcf05188883,en,here:cm:ontology:restaurant,"{'label': 'Aroma House, 070801 កំពត, កម្ពុជា', 'countryCode': 'KHM', 'countryName': 'កម្ពុជា', 'county': 'កំពត', 'city': 'កំពត', 'district': 'កំពង់កណ្ដាល', 'postalCode': '070801'}","{'lat': 10.6098, 'lng': 104.18123}","[{'lat': 10.60968, 'lng': 104.18129}]",25832,"[{'id': '100-1000-0000', 'name': 'Restaurant', 'primary': True}]","[{'id': '372-000', 'name': 'Mediterranean', 'primary': True}, {'id': '250-000', 'name': 'Middle Eastern'}, {'id': '253-000', 'name': 'Lebanese'}, {'id': '800-077', 'name': 'Vegetarian'}, {'id': '800-083', 'name': 'Natural/Healthy'}]","[{'supplier': {'id': 'tripadvisor'}, 'id': '10753203'}, {'supplier': {'id': 'tripadvisor'}, 'id': '10755201'}]","[{'phone': [{'value': '+85578796440'}], 'www': [{'value': 'http://www.facebook.com/aromakampot'}]}]","[{'text': ['Tue-Sun: 11:00 - 21:30'], 'isOpen': True, 'structured': [{'start': 'T110000', 'duration': 'PT10H30M', 'recurrence': 'FREQ:DAILY;BYDAY:TU,WE,TH,FR,SA,SU'}]}]",Kampot
Marina Italian Restaurant & Deli,here:pds:place:116w3fh6-cc63bbf0b82b41a198955ea207b2d067,en,here:cm:ontology:restaurant,"{'label': 'Marina Italian Restaurant & Deli, 070801 កំពត, កម្ពុជា', 'countryCode': 'KHM', 'countryName': 'កម្ពុជា', 'county': 'កំពត', 'city': 'កំពត', 'district': 'កំពង់កណ្ដាល', 'postalCode': '070801'}","{'lat': 10.60969, 'lng': 104.18099}","[{'lat': 10.60957, 'lng': 104.18105}]",25856,"[{'id': '100-1000-0000', 'name': 'Restaurant', 'primary': True}]","[{'id': '304-000', 'name': 'Italian', 'primary': True}]","[{'supplier': {'id': 'tripadvisor'}, 'id': '20219706'}]","[{'phone': [{'value': '+85570518547'}], 'www': [{'value': 'https://www.facebook.com/Marina-Italian-Restaurant-Deli-102934464638127'}]}]",Not Available,Kampot
N.V.9 Milk Tea,here:pds:place:116w3fh6-45d43c45b66f4f51abfe90681fdb7c0e,en,here:cm:ontology:restaurant,"{'label': 'N.V.9 Milk Tea, 070801 កំពត, កម្ពុជា', 'countryCode': 'KHM', 'countryName': 'កម្ពុជា', 'county': 'កំពត', 'city': 'កំពត', 'district': 'កំពង់កណ្ដាល', 'postalCode': '070801'}","{'lat': 10.60955, 'lng': 104.18097}","[{'lat': 10.60953, 'lng': 104.18097}]",25870,"[{'id': '100-1000-0000', 'name': 'Restaurant', 'primary': True}, {'id': '100-1100-0331', 'name': 'Tea House'}]",,Not Available,Not Available,Not Available,Kampot
The Lost Kitchen in Kampot,here:pds:place:116w3fh6-591b26571849546ecc194854d3197837,en,here:cm:ontology:restaurant,"{'label': 'The Lost Kitchen in Kampot, 070801 កំពត, កម្ពុជា', 'countryCode': 'KHM', 'countryName': 'កម្ពុជា', 'county': 'កំពត', 'city': 'កំពត', 'district': 'កំពង់កណ្ដាល', 'postalCode': '070801'}","{'lat': 10.60959, 'lng': 104.18077}","[{'lat': 10.60947, 'lng': 104.18083}]",25877,"[{'id': '100-1000-0000', 'name': 'Restaurant', 'primary': True}]","[{'id': '372-000', 'name': 'Mediterranean', 'primary': True}, {'id': '303-000', 'name': 'Greek'}]","[{'supplier': {'id': 'tripadvisor'}, 'id': '25189783'}]",[{'phone': [{'value': '+855962181196'}]}],"[{'text': ['Tue-Sun: 11:00 - 21:00'], 'isOpen': False, 'structured': [{'start': 'T110000', 'duration': 'PT10H00M', 'recurrence': 'FREQ:DAILY;BYDAY:TU,WE,TH,FR,SA,SU'}]}]",Kampot
Mora Korea Food,here:pds:place:116w3fh6-2c134e1b89ff41d0bd74196d09169921,en,here:cm:ontology:restaurant,"{'label': 'Mora Korea Food, 070801 កំពត, កម្ពុជា', 'countryCode': 'KHM', 'countryName': 'កម្ពុជា', 'county': 'កំពត', 'city': 'កំពត', 'district': 'កំពង់កណ្ដាល', 'postalCode': '070801'}","{'lat': 10.6096, 'lng': 104.18026}","[{'lat': 10.60961, 'lng': 104.18027}]",25904,"[{'id': '100-1000-0000', 'name': 'Restaurant', 'primary': True}]","[{'id': '207-000', 'name': 'Korean', 'primary': True}]",Not Available,Not Available,Not Available,Kampot
Kampot PIE & Ice Cream Palace,here:pds:place:116aabd1-b47ccf29fb1507130f181269e61005d9,en,here:cm:ontology:restaurant,"{'label': 'Kampot PIE & Ice Cream Palace, 070803 កំពត, កម្ពុជា', 'countryCode': 'KHM', 'countryName': 'កម្ពុជា', 'county': 'កំពត', 'city': 'កំពត', 'district': 'កំពង់បាយ', 'postalCode': '070803'}","{'lat': 10.61042, 'lng': 104.17873}","[{'lat': 10.61054, 'lng': 104.17867}]",25910,"[{'id': '100-1000-0000', 'name': 'Restaurant', 'primary': True}, {'id': '100-1000-0009', 'name': 'Fast Food'}, {'id': '100-1100-0010', 'name': 'Coffee Shop'}]","[{'id': '800-063', 'name': 'Ice Cream', 'primary': True}]","[{'supplier': {'id': 'tripadvisor'}, 'id': '3175908'}]",[{'phone': [{'value': '+85599657826'}]}],"[{'categories': [{'id': '100-1000-0000'}, {'id': '100-1100-0010'}], 'text': ['Mon-Sun: 06:30 - 20:30'], 'isOpen': False, 'structured': [{'start': 'T063000', 'duration': 'PT14H00M', 'recurrence': 'FREQ:DAILY;BYDAY:MO,TU,WE,TH,FR,SA,SU'}]}]",Kampot
Gringoloco,here:pds:place:116w3fh6-95b4da4d4ca24c75ae64eea42146d9ca,en,here:cm:ontology:restaurant,"{'label': 'Gringoloco, 070801 កំពត, កម្ពុជា', 'countryCode': 'KHM', 'countryName': 'កម្ពុជា', 'county': 'កំពត', 'city': 'កំពត', 'district': 'កំពង់កណ្ដាល', 'postalCode': '070801'}","{'lat': 10.60934, 'lng': 104.18023}","[{'lat': 10.60922, 'lng': 104.18029}]",25931,"[{'id': '100-1000-0000', 'name': 'Restaurant', 'primary': True}]","[{'id': '102-000', 'name': 'Mexican', 'primary': True}]",Not Available,[{'phone': [{'value': '+855966138128'}]}],Not Available,Kampot
"The Kennel Pub, Bar & Food",here:pds:place:116w3fh6-523c005504d80412a8667b9a9309753e,en,here:cm:ontology:restaurant,"{'label': 'The Kennel Pub, Bar & Food, 070801 កំពត, កម្ពុជា', 'countryCode': 'KHM', 'countryName': 'កម្ពុជា', 'county': 'កំពត', 'city': 'កំពត', 'district': 'កំពង់កណ្ដាល', 'postalCode': '070801'}","{'lat': 10.60956, 'lng': 104.17964}","[{'lat': 10.6095, 'lng': 104.1795}]",25942,"[{'id': '100-1000-0000', 'name': 'Restaurant', 'primary': True}]","[{'id': '308-000', 'name': 'British Isles', 'primary': True}]","[{'supplier': {'id': 'tripadvisor'}, 'id': '23524774'}]","[{'phone': [{'value': '+85581532061'}], 'www': [{'value': 'http://the-kennel-pub-bar-food.business.site'}]}]","[{'text': ['Mon-Sat: 12:00 - 21:00'], 'isOpen': False, 'structured': [{'start': 'T120000', 'duration': 'PT09H00M', 'recurrence': 'FREQ:DAILY;BYDAY:MO,TU,WE,TH,FR,SA'}]}]",Kampot
Food Addiction,here:pds:place:116w3fh6-659d31bba6154a1790ccce960c0f0511,en,here:cm:ontology:restaurant,"{'label': 'Food Addiction, 070801 កំពត, កម្ពុជា', 'countryCode': 'KHM', 'countryName': 'កម្ពុជា', 'county': 'កំពត', 'city': 'កំពត', 'district': 'កំពង់កណ្ដាល', 'postalCode': '070801'}","{'lat': 10.60871, 'lng': 104.18051}","[{'lat': 10.60877, 'lng': 104.18065}]",25976,"[{'id': '100-1000-0000', 'name': 'Restaurant', 'primary': True}]","[{'id': '301-000', 'name': 'French', 'primary': True}]","[{'supplier': {'id': 'tripadvisor'}, 'id': '18976954'}]","[{'phone': [{'value': '+85586534739'}], 'www': [{'value': 'https://food-addiction-restaurant.business.site'}]}]","[{'text': ['Mon, Thu-Sun: 00:00 - 02:30, 18:00 - 24:00'], 'isOpen': True, 'structured': [{'start': 'T180000', 'duration': 'PT06H00M', 'recurrence': 'FREQ:DAILY;BYDAY:MO'}, {'start': 'T000000', 'duration': 'PT02H30M', 'recurrence': 'FREQ:DAILY;BYDAY:TH'}, {'start': 'T180000', 'duration': 'PT08H30M', 'recurrence': 'FREQ:DAILY;BYDAY:TH,FR,SA,SU'}]}]",Kampot
L'Osteria,here:pds:place:116aabd1-5d98a4a9b8f0081f14722a149383dd4a,en,here:cm:ontology:restaurant,"{'label': ""L'Osteria, 070801 កំពត, កម្ពុជា"", 'countryCode': 'KHM', 'countryName': 'កម្ពុជា', 'county': 'កំពត', 'city': 'កំពត', 'district': 'កំពង់កណ្ដាល', 'postalCode': '070801'}","{'lat': 10.60869, 'lng': 104.18053}","[{'lat': 10.60875, 'lng': 104.18066}]",25977,"[{'id': '100-1000-0000', 'name': 'Restaurant', 'primary': True}]","[{'id': '300-000', 'name': 'European', 'primary': True}, {'id': '304-000', 'name': 'Italian'}, {'id': '372-000', 'name': 'Mediterranean'}, {'id': '800-057', 'name': 'Pizza'}]","[{'supplier': {'id': 'tripadvisor'}, 'id': '9708307'}]","[{'phone': [{'value': '+85512309048'}], 'www': [{'value': 'http://www.facebook.com/osteriainkampot'}]}]","[{'text': ['Mon-Sun: 11:00 - 22:00'], 'isOpen': True, 'structured': [{'start': 'T110000', 'duration': 'PT11H00M', 'recurrence': 'FREQ:DAILY;BYDAY:MO,TU,WE,TH,FR,SA,SU'}]}]",Kampot
Candy Pepper,here:pds:place:116w3fh6-4c4c04957631945ce7912006aee41ebf,en,here:cm:ontology:restaurant,"{'label': 'Candy Pepper, 070801 កំពត, កម្ពុជា', 'countryCode': 'KHM', 'countryName': 'កម្ពុជា', 'county': 'កំពត', 'city': 'កំពត', 'district': 'កំពង់កណ្ដាល', 'postalCode': '070801'}","{'lat': 10.60839, 'lng': 104.18105}","[{'lat': 10.60826, 'lng': 104.18109}]",25978,"[{'id': '100-1000-0000', 'name': 'Restaurant', 'primary': True}, {'id': '500-5100-0057', 'name': 'Guest House'}]",,"[{'supplier': {'id': 'tripadvisor'}, 'id': '26395027'}, {'supplier': {'id': 'tripadvisor'}, 'id': '26398354'}]","[{'phone': [{'value': '+85581236064'}], 'www': [{'value': 'https://www.facebook.com/kampotcandypepper', 'categories': [{'id': '100-1000-0000'}]}]}]","[{'categories': [{'id': '100-1000-0000'}], 'text': ['Mon: 09:00 - 22:30', 'Wed-Sun: 09:00 - 22:00'], 'isOpen': True, 'structured': [{'start': 'T090000', 'duration': 'PT13H30M', 'recurrence': 'FREQ:DAILY;BYDAY:MO'}, {'start': 'T090000', 'duration': 'PT13H00M', 'recurrence': 'FREQ:DAILY;BYDAY:WE,TH,FR,SA,SU'}]}]",Kampot
Little Garden Guesthouse & Restaurant,here:pds:place:116w3fh6-3f1a096969164e569951454b6a939719,en,here:cm:ontology:restaurant,"{'label': 'Little Garden Guesthouse & Restaurant, អូអ៊ែល-3, 070803 កំពត, កម្ពុជា', 'countryCode': 'KHM', 'countryName': 'កម្ពុជា', 'county': 'កំពត', 'city': 'កំពត', 'district': 'កំពង់បាយ', 'street': 'អូអ៊ែល-3', 'postalCode': '070803'}","{'lat': 10.61, 'lng': 104.17806}","[{'lat': 10.60994, 'lng': 104.17794}]",25987,"[{'id': '100-1000-0000', 'name': 'Restaurant', 'primary': True}]",,"[{'supplier': {'id': 'tripadvisor'}, 'id': '2510783'}]",[{'phone': [{'value': '+85533932396'}]}],Not Available,Kampot
Bridge Coffee,here:pds:place:116w3fh6-af6d4730f1d44f12adb9f6c76e8dc7aa,en,here:cm:ontology:restaurant,"{'label': 'Bridge Coffee, 070804 កំពត, កម្ពុជា', 'countryCode': 'KHM', 'countryName': 'កម្ពុជា', 'county': 'កំពត', 'city': 'កំពត', 'district': 'អណ្ដូងខ្មែរ', 'postalCode': '070804'}","{'lat': 10.61536, 'lng': 104.16913}","[{'lat': 10.61549, 'lng': 104.16908}]",25996,"[{'id': '100-1000-0000', 'name': 'Restaurant', 'primary': True}, {'id': '100-1000-0001', 'name': 'Casual Dining'}]","[{'id': '200-000', 'name': 'Asian', 'primary': True}, {'id': '101-000', 'name': 'American'}, {'id': '207-000', 'name': 'Korean'}, {'id': '256-000', 'name': 'Cambodian'}, {'id': '301-000', 'name': 'French'}, {'id': '308-000', 'name': 'British Isles'}]","[{'supplier': {'id': 'tripadvisor'}, 'id': '16819247'}]",[{'phone': [{'value': '+85511239398'}]}],"[{'categories': [{'id': '100-1000-0000'}], 'text': ['Mon-Fri: 09:00 - 18:00', 'Sat: 09:00 - 16:00'], 'isOpen': False, 'structured': [{'start': 'T090000', 'duration': 'PT09H00M', 'recurrence': 'FREQ:DAILY;BYDAY:MO,TU,WE,TH,FR'}, {'start': 'T090000', 'duration': 'PT07H00M', 'recurrence': 'FREQ:DAILY;BYDAY:SA'}]}]",Kampot
Taj Mahal,here:pds:place:116w3fh6-0714951f0e204a3a9b224512515c2820,en,here:cm:ontology:restaurant,"{'label': 'Taj Mahal, អូអ៊ែល-3, 070803 កំពត, កម្ពុជា', 'countryCode': 'KHM', 'countryName': 'កម្ពុជា', 'county': 'កំពត', 'city': 'កំពត', 'district': 'កំពង់បាយ', 'street': 'អូអ៊ែល-3', 'postalCode': '070803'}","{'lat': 10.60976, 'lng': 104.17818}","[{'lat': 10.6097, 'lng': 104.17806}]",26004,"[{'id': '100-1000-0000', 'name': 'Restaurant', 'primary': True}]","[{'id': '202-000', 'name': 'Indian', 'primary': True}, {'id': '208-000', 'name': 'Pakistani'}]","[{'supplier': {'id': 'tripadvisor'}, 'id': '13168358'}]","[{'phone': [{'value': '+85581813081'}], 'www': [{'value': 'http://www.facebook.com/TajMahal.Restaurant'}]}]","[{'text': ['Mon-Sun: 11:00 - 22:00'], 'isOpen': True, 'structured': [{'start': 'T110000', 'duration': 'PT11H00M', 'recurrence': 'FREQ:DAILY;BYDAY:MO,TU,WE,TH,FR,SA,SU'}]}]",Kampot
Ecran Noodles & Dumplings,here:pds:place:116w3fh6-c8d16193f88b43a38b4b7f29b7a83ccd,en,here:cm:ontology:restaurant,"{'label': 'Ecran Noodles & Dumplings, អូអ៊ែល-3, 070803 កំពត, កម្ពុជា', 'countryCode': 'KHM', 'countryName': 'កម្ពុជា', 'county': 'កំពត', 'city': 'កំពត', 'district': 'កំពង់បាយ', 'street': 'អូអ៊ែល-3', 'postalCode': '070803'}","{'lat': 10.60961, 'lng': 104.17818}","[{'lat': 10.60958, 'lng': 104.17811}]",26018,"[{'id': '100-1000-0000', 'name': 'Restaurant', 'primary': True}]","[{'id': '201-000', 'name': 'Chinese', 'primary': True}, {'id': '203-000', 'name': 'Japanese'}, {'id': '800-085', 'name': 'Noodles'}]",Not Available,[{'phone': [{'value': '+85510249411'}]}],Not Available,Kampot
Ecran Noodle & Dumplings,here:pds:place:116aabd1-85293930a4ec07a8ae1214bac7cd306e,en,here:cm:ontology:restaurant,"{'label': 'Ecran Noodle & Dumplings, អូអ៊ែល-3, 070803 កំពត, កម្ពុជា', 'countryCode': 'KHM', 'countryName': 'កម្ពុជា', 'county': 'កំពត', 'city': 'កំពត', 'district': 'កំពង់បាយ', 'street': 'អូអ៊ែល-3', 'postalCode': '070803'}","{'lat': 10.60947, 'lng': 104.17832}","[{'lat': 10.60941, 'lng': 104.1782}]",26024,"[{'id': '100-1000-0000', 'name': 'Restaurant', 'primary': True}]","[{'id': '800-080', 'name': 'Soup', 'primary': True}, {'id': '200-000', 'name': 'Asian'}, {'id': '201-000', 'name': 'Chinese'}, {'id': '800-085', 'name': 'Noodles'}]","[{'supplier': {'id': 'tripadvisor'}, 'id': '4758741'}]","[{'phone': [{'value': '+85510249411'}], 'www': [{'value': 'https://www.facebook.com/ecrannoodlesanddumplings'}]}]","[{'text': ['Mon-Sun: 10:30 - 20:30'], 'isOpen': False, 'structured': [{'start': 'T103000', 'duration': 'PT10H00M', 'recurrence': 'FREQ:DAILY;BYDAY:MO,TU,WE,TH,FR,SA,SU'}]}]",Kampot
The Fun Pizza Restaurnat,here:pds:place:116aabd1-a59d363b3c45045e72a7ae4afcc708fd,en,here:cm:ontology:restaurant,"{'label': 'The Fun Pizza Restaurnat, 070801 កំពត, កម្ពុជា', 'countryCode': 'KHM', 'countryName': 'កម្ពុជា', 'county': 'កំពត', 'city': 'កំពត', 'district': 'កំពង់កណ្ដាល', 'postalCode': '070801'}","{'lat': 10.60838, 'lng': 104.18011}","[{'lat': 10.60825, 'lng': 104.18016}]",26030,"[{'id': '100-1000-0000', 'name': 'Restaurant', 'primary': True}]","[{'id': '200-000', 'name': 'Asian', 'primary': True}, {'id': '256-000', 'name': 'Cambodian'}, {'id': '300-000', 'name': 'European'}, {'id': '304-000', 'name': 'Italian'}, {'id': '800-057', 'name': 'Pizza'}]","[{'supplier': {'id': 'tripadvisor'}, 'id': '1723592'}]","[{'phone': [{'value': '+85592229230'}], 'www': [{'value': 'http://www.facebook.com/thefunpizza'}]}]","[{'text': ['Mon-Sun: 08:00 - 23:30'], 'isOpen': True, 'structured': [{'start': 'T080000', 'duration': 'PT15H30M', 'recurrence': 'FREQ:DAILY;BYDAY:MO,TU,WE,TH,FR,SA,SU'}]}]",Kampot
Sophia's Kitchen Kampot - Sophia's Restaurant,here:pds:place:116w3fh6-07439eebd76f4e4dbce314d96974788d,en,here:cm:ontology:restaurant,"{'label': ""Sophia's Kitchen Kampot - Sophia's Restaurant, 070804 កំពត, កម្ពុជា"", 'countryCode': 'KHM', 'countryName': 'កម្ពុជា', 'county': 'កំពត', 'city': 'កំពត', 'district': 'អណ្ដូងខ្មែរ', 'postalCode': '070804'}","{'lat': 10.62023, 'lng': 104.16127}","[{'lat': 10.62036, 'lng': 104.1613}]",26032,"[{'id': '100-1000-0000', 'name': 'Restaurant', 'primary': True}]","[{'id': '200-000', 'name': 'Asian', 'primary': True}, {'id': '300-000', 'name': 'European'}, {'id': '302-000', 'name': 'German'}, {'id': '310-000', 'name': 'Swiss'}]","[{'supplier': {'id': 'tripadvisor'}, 'id': '16774077'}]","[{'phone': [{'value': '+85510261391'}], 'www': [{'value': 'https://www.facebook.com/Novsophiasophianov'}]}]","[{'text': ['Mon-Sat: 10:00 - 21:00'], 'isOpen': False, 'structured': [{'start': 'T100000', 'duration': 'PT11H00M', 'recurrence': 'FREQ:DAILY;BYDAY:MO,TU,WE,TH,FR,SA'}]}]",Kampot
Ecstatic Restaurant 1,here:pds:place:116aabd1-095d6802a8ce01692bdf37a2c1d6fe71,en,here:cm:ontology:restaurant,"{'label': 'Ecstatic Restaurant 1, 070801 កំពត, កម្ពុជា', 'countryCode': 'KHM', 'countryName': 'កម្ពុជា', 'county': 'កំពត', 'city': 'កំពត', 'district': 'កំពង់កណ្ដាល', 'postalCode': '070801'}","{'lat': 10.60818, 'lng': 104.18041}","[{'lat': 10.60805, 'lng': 104.18045}]",26033,"[{'id': '100-1000-0000', 'name': 'Restaurant', 'primary': True}]","[{'id': '800-057', 'name': 'Pizza', 'primary': True}, {'id': '304-000', 'name': 'Italian'}]",Not Available,[{'phone': [{'value': '+85511406105'}]}],Not Available,Kampot
The Fun Pizza,here:pds:place:116w3fh6-04957266fb714c7c887c5715c2535697,en,here:cm:ontology:restaurant,"{'label': 'The Fun Pizza, 070801 កំពត, កម្ពុជា', 'countryCode': 'KHM', 'countryName': 'កម្ពុជា', 'county': 'កំពត', 'city': 'កំពត', 'district': 'កំពង់កណ្ដាល', 'postalCode': '070801'}","{'lat': 10.60833, 'lng': 104.18013}","[{'lat': 10.6083, 'lng': 104.18005}]",26034,"[{'id': '100-1000-0000', 'name': 'Restaurant', 'primary': True}]","[{'id': '304-000', 'name': 'Italian', 'primary': True}, {'id': '256-000', 'name': 'Cambodian'}, {'id': '800-057', 'name': 'Pizza'}]",Not Available,"[{'phone': [{'value': '+85592229230'}], 'www': [{'value': 'https://www.tripadvisor.com/Restaurant_Review-g297390-d10802683-Reviews-The_Fun_Pizza-Siem_Reap_Siem_Reap_Province.html'}]}]",Not Available,Kampot
Cuisine at Coffee and Cocktails,here:pds:place:116w3fh6-9021431aeb024db8bcafec1bd282a309,en,here:cm:ontology:restaurant,"{'label': 'Cuisine at Coffee and Cocktails, 070801 កំពត, កម្ពុជា', 'countryCode': 'KHM', 'countryName': 'កម្ពុជា', 'county': 'កំពត', 'city': 'កំពត', 'district': 'កំពង់កណ្ដាល', 'postalCode': '070801'}","{'lat': 10.60884, 'lng': 104.17916}","[{'lat': 10.60872, 'lng': 104.17922}]",26038,"[{'id': '100-1000-0000', 'name': 'Restaurant', 'primary': True}, {'id': '100-1100-0010', 'name': 'Coffee Shop'}]","[{'id': '300-000', 'name': 'European', 'primary': True}, {'id': '800-064', 'name': 'International'}]","[{'supplier': {'id': 'tripadvisor'}, 'id': '12914846'}]",[{'phone': [{'value': '+855889232059'}]}],"[{'categories': [{'id': '100-1000-0000'}], 'text': ['Mon-Sun: 09:00 - 17:00'], 'isOpen': False, 'structured': [{'start': 'T090000', 'duration': 'PT08H00M', 'recurrence': 'FREQ:DAILY;BYDAY:MO,TU,WE,TH,FR,SA,SU'}]}]",Kampot
Divinoitalianrestaurant,here:pds:place:116w3fh6-f2a61185f24d4850852ae38a617f16e5,en,here:cm:ontology:restaurant,"{'label': 'Divinoitalianrestaurant, 070801 កំពត, កម្ពុជា', 'countryCode': 'KHM', 'countryName': 'កម្ពុជា', 'county': 'កំពត', 'city': 'កំពត', 'district': 'កំពង់កណ្ដាល', 'postalCode': '070801'}","{'lat': 10.60823, 'lng': 104.17993}","[{'lat': 10.60828, 'lng': 104.18006}]",26054,"[{'id': '100-1000-0000', 'name': 'Restaurant', 'primary': True}]",,Not Available,"[{'phone': [{'value': '+855884791027'}], 'www': [{'value': 'http://Divino.Kampot.wix.com/divino.kampot'}]}]",Not Available,Kampot
Tertúlia Restaurant Kampot,here:pds:place:116httek-0e11db46e3f50aa1ae5760bce47e4b8e,en,here:cm:ontology:restaurant,"{'label': 'Tertúlia Restaurant Kampot, 070801 កំពត, កម្ពុជា', 'countryCode': 'KHM', 'countryName': 'កម្ពុជា', 'county': 'កំពត', 'city': 'កំពត', 'district': 'កំពង់កណ្ដាល', 'postalCode': '070801'}","{'lat': 10.60786, 'lng': 104.1803}","[{'lat': 10.60784, 'lng': 104.18017}]",26070,"[{'id': '100-1000-0000', 'name': 'Restaurant', 'primary': True}]","[{'id': '313-000', 'name': 'Portuguese', 'primary': True}]",Not Available,[{'phone': [{'value': '+85593375085'}]}],Not Available,Kampot
Milano Cafe,here:pds:place:116w3fh6-5b6999b1b1bc47f8bc2f6f741fa8ecdc,en,here:cm:ontology:restaurant,"{'label': 'Milano Cafe, 070801 កំពត, កម្ពុជា', 'countryCode': 'KHM', 'countryName': 'កម្ពុជា', 'county': 'កំពត', 'city': 'កំពត', 'district': 'កំពង់កណ្ដាល', 'postalCode': '070801'}","{'lat': 10.60795, 'lng': 104.18014}","[{'lat': 10.60795, 'lng': 104.18015}]",26070,"[{'id': '100-1000-0000', 'name': 'Restaurant', 'primary': True}]","[{'id': '800-064', 'name': 'International', 'primary': True}, {'id': '256-000', 'name': 'Cambodian'}, {'id': '300-000', 'name': 'European'}, {'id': '304-000', 'name': 'Italian'}, {'id': '800-078', 'name': 'Grill'}]","[{'supplier': {'id': 'tripadvisor'}, 'id': '16806098'}]","[{'phone': [{'value': '+85561696563'}], 'www': [{'value': 'http://milanopizza-cafe.com/index.php'}]}]",Not Available,Kampot
The Family Restaurant and Bar,here:pds:place:116aabd1-b2590c883adc01e88c1bc82b4ca4150c,en,here:cm:ontology:restaurant,"{'label': 'The Family Restaurant and Bar, 070801 កំពត, កម្ពុជា', 'countryCode': 'KHM', 'countryName': 'កម្ពុជា', 'county': 'កំពត', 'city': 'កំពត', 'district': 'កំពង់កណ្ដាល', 'postalCode': '070801'}","{'lat': 10.60811, 'lng': 104.17981}","[{'lat': 10.60812, 'lng': 104.17981}]",26072,"[{'id': '100-1000-0000', 'name': 'Restaurant', 'primary': True}, {'id': '100-1000-0007', 'name': 'Cafeteria'}]","[{'id': '300-000', 'name': 'European', 'primary': True}]","[{'supplier': {'id': 'tripadvisor'}, 'id': '8423374'}]","[{'phone': [{'value': '+85569501607'}, {'value': '+85581378882', 'categories': [{'id': '100-1000-0007'}]}]}]",Not Available,Kampot
Urban Kitchen Restaurant&Bar,here:pds:place:116aabd1-6e634cc729330de52da539c9ed725d31,en,here:cm:ontology:restaurant,"{'label': 'Urban Kitchen Restaurant&Bar, 070801 កំពត, កម្ពុជា', 'countryCode': 'KHM', 'countryName': 'កម្ពុជា', 'county': 'កំពត', 'city': 'កំពត', 'district': 'កំពង់កណ្ដាល', 'postalCode': '070801'}","{'lat': 10.60789, 'lng': 104.18011}","[{'lat': 10.60789, 'lng': 104.18016}]",26077,"[{'id': '100-1000-0000', 'name': 'Restaurant', 'primary': True}, {'id': '200-2000-0011', 'name': 'Bar or Pub'}]","[{'id': '372-000', 'name': 'Mediterranean', 'primary': True}]",Not Available,[{'phone': [{'value': '+85570418530'}]}],Not Available,Kampot
Curry Mahal Indian Restaurant,here:pds:place:116w3fh6-81cd63bc87987844e91f61ecc3789fd4,en,here:cm:ontology:restaurant,"{'label': 'Curry Mahal Indian Restaurant, 070801 កំពត, កម្ពុជា', 'countryCode': 'KHM', 'countryName': 'កម្ពុជា', 'county': 'កំពត', 'city': 'កំពត', 'district': 'កំពង់កណ្ដាល', 'postalCode': '070801'}","{'lat': 10.60819, 'lng': 104.17958}","[{'lat': 10.60806, 'lng': 104.17963}]",26077,"[{'id': '100-1000-0000', 'name': 'Restaurant', 'primary': True}]","[{'id': '200-000', 'name': 'Asian', 'primary': True}, {'id': '202-000', 'name': 'Indian'}, {'id': '208-000', 'name': 'Pakistani'}, {'id': '250-000', 'name': 'Middle Eastern'}]","[{'supplier': {'id': 'tripadvisor'}, 'id': '21394010'}]",[{'phone': [{'value': '+855965408646'}]}],"[{'text': ['Mon-Sun: 10:00 - 22:00'], 'isOpen': True, 'structured': [{'start': 'T100000', 'duration': 'PT12H00M', 'recurrence': 'FREQ:DAILY;BYDAY:MO,TU,WE,TH,FR,SA,SU'}]}]",Kampot
K.P Container Pub,here:pds:place:116w3fh6-3044e13e54cd4e91815bee0dae0a4114,en,here:cm:ontology:restaurant,"{'label': 'K.P Container Pub, 070804 កំពត, កម្ពុជា', 'countryCode': 'KHM', 'countryName': 'កម្ពុជា', 'county': 'កំពត', 'city': 'កំពត', 'district': 'អណ្ដូងខ្មែរ', 'postalCode': '070804'}","{'lat': 10.61261, 'lng': 104.17211}","[{'lat': 10.61253, 'lng': 104.172}]",26078,"[{'id': '100-1000-0000', 'name': 'Restaurant', 'primary': True}]",,Not Available,[{'phone': [{'value': '+855965944924'}]}],Not Available,Kampot
Happy Kampot Pizza,here:pds:place:116aabd1-1878902b2038063defc0e5017f76e2f9,en,here:cm:ontology:restaurant,"{'label': 'Happy Kampot Pizza, 070801 កំពត, កម្ពុជា', 'countryCode': 'KHM', 'countryName': 'កម្ពុជា', 'county': 'កំពត', 'city': 'កំពត', 'district': 'កំពង់កណ្ដាល', 'postalCode': '070801'}","{'lat': 10.60817, 'lng': 104.17952}","[{'lat': 10.60804, 'lng': 104.17957}]",26083,"[{'id': '100-1000-0000', 'name': 'Restaurant', 'primary': True}]","[{'id': '200-000', 'name': 'Asian', 'primary': True}, {'id': '256-000', 'name': 'Cambodian'}, {'id': '300-000', 'name': 'European'}, {'id': '800-057', 'name': 'Pizza'}]","[{'supplier': {'id': 'tripadvisor'}, 'id': '10941445'}]",[{'phone': [{'value': '+85593366369'}]}],Not Available,Kampot
Wonderland Ice Cream,here:pds:place:116aabd1-939bb9c1402c0a6639be624de9968f26,en,here:cm:ontology:restaurant,"{'label': 'Wonderland Ice Cream, 070801 កំពត, កម្ពុជា', 'countryCode': 'KHM', 'countryName': 'កម្ពុជា', 'county': 'កំពត', 'city': 'កំពត', 'district': 'កំពង់កណ្ដាល', 'postalCode': '070801'}","{'lat': 10.60801, 'lng': 104.17966}","[{'lat': 10.60809, 'lng': 104.18012}]",26090,"[{'id': '100-1000-0000', 'name': 'Restaurant', 'primary': True}]","[{'id': '800-063', 'name': 'Ice Cream', 'primary': True}]",Not Available,[{'phone': [{'value': '+85512374052'}]}],Not Available,Kampot
Nara Restaurant,here:pds:place:116w3fh6-c0059efed6a649dc93187693ad33d638,en,here:cm:ontology:restaurant,"{'label': 'Nara Restaurant, 070801 កំពត, កម្ពុជា', 'countryCode': 'KHM', 'countryName': 'កម្ពុជា', 'county': 'កំពត', 'city': 'កំពត', 'district': 'កំពង់កណ្ដាល', 'postalCode': '070801'}","{'lat': 10.60795, 'lng': 104.17974}","[{'lat': 10.60808, 'lng': 104.17969}]",26092,"[{'id': '100-1000-0000', 'name': 'Restaurant', 'primary': True}]","[{'id': '256-000', 'name': 'Cambodian', 'primary': True}]","[{'supplier': {'id': 'tripadvisor'}, 'id': '12111273'}]","[{'phone': [{'value': '+85589819664'}], 'www': [{'value': 'https://www.facebook.com/Nara-Restaurant-421632378180613'}]}]","[{'text': ['Mon-Sun: 06:30 - 23:00'], 'isOpen': True, 'structured': [{'start': 'T063000', 'duration': 'PT16H30M', 'recurrence': 'FREQ:DAILY;BYDAY:MO,TU,WE,TH,FR,SA,SU'}]}]",Kampot
Cam's Burrito,here:pds:place:116w3fh6-9ab64b92ad7d4cc1b177f696fd585f19,en,here:cm:ontology:restaurant,"{'label': ""Cam's Burrito, 070801 កំពត, កម្ពុជា"", 'countryCode': 'KHM', 'countryName': 'កម្ពុជា', 'county': 'កំពត', 'city': 'កំពត', 'district': 'កំពង់កណ្ដាល', 'postalCode': '070801'}","{'lat': 10.60777, 'lng': 104.18005}","[{'lat': 10.60779, 'lng': 104.18018}]",26092,"[{'id': '100-1000-0000', 'name': 'Restaurant', 'primary': True}]","[{'id': '102-000', 'name': 'Mexican', 'primary': True}]",Not Available,[{'phone': [{'value': '+85511904879'}]}],Not Available,Kampot
The Kampot Pepper Shop,here:pds:place:116w3fh6-97cb03b0538b4db49fe764f4eda5411f,en,here:cm:ontology:restaurant,"{'label': 'The Kampot Pepper Shop, 070801 កំពត, កម្ពុជា', 'countryCode': 'KHM', 'countryName': 'កម្ពុជា', 'county': 'កំពត', 'city': 'កំពត', 'district': 'កំពង់កណ្ដាល', 'postalCode': '070801'}","{'lat': 10.60759, 'lng': 104.18035}","[{'lat': 10.60757, 'lng': 104.18022}]",26093,"[{'id': '100-1000-0000', 'name': 'Restaurant', 'primary': True}, {'id': '100-1000-0006', 'name': 'Deli'}, {'id': '600-6300-0067', 'name': 'Specialty Food Store'}, {'id': '600-6900-0103', 'name': 'Gift, Antique & Art'}]","[{'id': '800-075', 'name': 'Seafood', 'primary': True}, {'id': '200-000', 'name': 'Asian'}, {'id': '256-000', 'name': 'Cambodian'}, {'id': '300-000', 'name': 'European'}, {'id': '800-064', 'name': 'International'}]","[{'supplier': {'id': 'tripadvisor'}, 'id': '10819469'}, {'supplier': {'id': 'tripadvisor'}, 'id': '15668350'}, {'supplier': {'id': 'tripadvisor'}, 'id': '27726969'}]","[{'phone': [{'value': '+85512691379', 'categories': [{'id': '100-1000-0006'}, {'id': '600-6300-0067'}, {'id': '600-6900-0103'}]}, {'value': '+85587548900'}], 'www': [{'value': 'http://www.botree.asia', 'categories': [{'id': '100-1000-0006'}, {'id': '600-6300-0067'}, {'id': '600-6900-0103'}]}, {'value': 'https://www.kampotseafoodpepperrestaurant-cookingclass.com', 'categories': [{'id': '100-1000-0000'}]}]}]","[{'categories': [{'id': '600-6900-0103'}], 'text': ['Mon-Sun: 08:00 - 20:00'], 'isOpen': False, 'structured': [{'start': 'T080000', 'duration': 'PT12H00M', 'recurrence': 'FREQ:DAILY;BYDAY:MO,TU,WE,TH,FR,SA,SU'}]}, {'categories': [{'id': '100-1000-0000'}], 'text': ['Mon-Sun: 10:00 - 23:00'], 'isOpen': True, 'structured': [{'start': 'T100000', 'duration': 'PT13H00M', 'recurrence': 'FREQ:DAILY;BYDAY:MO,TU,WE,TH,FR,SA,SU'}]}]",Kampot
Simon's Tandoor Indian Restaurant,here:pds:place:116w3fh6-1fb59fb3e2e440be80b7b2f2aee13bdb,en,here:cm:ontology:restaurant,"{'label': ""Simon's Tandoor Indian Restaurant, 070801 កំពត, កម្ពុជា"", 'countryCode': 'KHM', 'countryName': 'កម្ពុជា', 'county': 'កំពត', 'city': 'កំពត', 'district': 'កំពង់កណ្ដាល', 'postalCode': '070801'}","{'lat': 10.608, 'lng': 104.17953}","[{'lat': 10.60811, 'lng': 104.18012}]",26098,"[{'id': '100-1000-0000', 'name': 'Restaurant', 'primary': True}]","[{'id': '202-000', 'name': 'Indian', 'primary': True}]",Not Available,"[{'phone': [{'value': '+85577909265'}], 'www': [{'value': 'http://www.simonsindianrestaurant.com'}]}]",Not Available,Kampot
La Bodega del Kampot,here:pds:place:116w3fh6-3e547f736e4c4093b146c9664621a8a5,en,here:cm:ontology:restaurant,"{'label': 'La Bodega del Kampot, 070801 កំពត, កម្ពុជា', 'countryCode': 'KHM', 'countryName': 'កម្ពុជា', 'county': 'កំពត', 'city': 'កំពត', 'district': 'កំពង់កណ្ដាល', 'postalCode': '070801'}","{'lat': 10.60769, 'lng': 104.18006}","[{'lat': 10.60771, 'lng': 104.18019}]",26099,"[{'id': '100-1000-0000', 'name': 'Restaurant', 'primary': True}]","[{'id': '400-000', 'name': 'South American', 'primary': True}, {'id': '152-000', 'name': 'Caribbean'}, {'id': '153-000', 'name': 'Cuban'}, {'id': '301-000', 'name': 'French'}, {'id': '311-000', 'name': 'Spanish'}, {'id': '372-000', 'name': 'Mediterranean'}]","[{'supplier': {'id': 'tripadvisor'}, 'id': '19127580'}]","[{'phone': [{'value': '+85581236064'}], 'www': [{'value': 'http://www.facebook.com/labodega.delkampot.5'}]}]",Not Available,Kampot
Asian Buffet Restaurant,here:pds:place:116w3cux-698e564ca5f5448db088e52198fed910,en,here:cm:ontology:restaurant,"{'label': 'Asian Buffet Restaurant, 070206 ទឹកឈូរ, កម្ពុជា', 'countryCode': 'KHM', 'countryName': 'កម្ពុជា', 'county': 'កំពត', 'city': 'ទឹកឈូរ', 'district': 'កោះតូច', 'postalCode': '070206'}","{'lat': 10.63581, 'lng': 104.0181}","[{'lat': 10.63574, 'lng': 104.01799}]",37440,"[{'id': '100-1000-0000', 'name': 'Restaurant', 'primary': True}]","[{'id': '200-000', 'name': 'Asian', 'primary': True}, {'id': '101-000', 'name': 'American'}, {'id': '201-000', 'name': 'Chinese'}, {'id': '203-000', 'name': 'Japanese'}, {'id': '300-000', 'name': 'European'}]","[{'supplier': {'id': 'tripadvisor'}, 'id': '12235380'}]","[{'phone': [{'value': '+855336838888'}], 'www': [{'value': 'http://thansurbokor.com'}]}]",Not Available,Kampot
Viyuk168 Restaurant,here:pds:place:116w3fkf-17f098e0c5ba463ea6564ab5b41b58cf,en,here:cm:ontology:restaurant,"{'label': 'Viyuk168 Restaurant, 070313 បន្ទាយមាស, កម្ពុជា', 'countryCode': 'KHM', 'countryName': 'កម្ពុជា', 'county': 'កំពត', 'city': 'បន្ទាយមាស', 'district': 'ទូកមាសខាងលិច', 'postalCode': '070313'}","{'lat': 10.68409, 'lng': 104.5314}","[{'lat': 10.68421, 'lng': 104.53146}]",48000,"[{'id': '100-1000-0000', 'name': 'Restaurant', 'primary': True}]","[{'id': '256-000', 'name': 'Cambodian', 'primary': True}]",Not Available,Not Available,Not Available,Kampot
Waveclub & Stardust KTV at Thansur Bokor Highland Resort,here:pds:place:116httek-b837ecd07eaf0c9eeb584a58018c96e4,en,here:cm:ontology:theatre_music_culture,"{'label': 'Waveclub & Stardust KTV at Thansur Bokor Highland Resort, 070206 ទឹកឈូរ, កម្ពុជា', 'countryCode': 'KHM', 'countryName': 'កម្ពុជា', 'county': 'កំពត', 'city': 'ទឹកឈូរ', 'district': 'កោះតូច', 'postalCode': '070206'}","{'lat': 10.63592, 'lng': 104.01788}","[{'lat': 10.63579, 'lng': 104.01789}]",37359,"[{'id': '200-2000-0012', 'name': 'Night Club', 'primary': True}, {'id': '200-2000-0014', 'name': 'Karaoke'}]",,Not Available,"[{'phone': [{'value': '+855883355608'}], 'www': [{'value': 'http://thansurbokor.com'}]}]",Not Available,Kampot
Daily Tours,here:pds:place:116w3fh6-99fd732d51de277251e042ee6331a648,en,here:cm:ontology:tourist_attraction,"{'label': 'Daily Tours, 070801 កំពត, កម្ពុជា', 'countryCode': 'KHM', 'countryName': 'កម្ពុជា', 'county': 'កំពត', 'city': 'កំពត', 'district': 'កំពង់កណ្ដាល', 'postalCode': '070801'}","{'lat': 10.60978, 'lng': 104.1833}","[{'lat': 10.60964, 'lng': 104.18321}]",129877,"[{'id': '300-3000-0023', 'name': 'Tourist Attraction', 'primary': True}]",,"[{'supplier': {'id': 'tripadvisor'}, 'id': '25291336'}]",[{'phone': [{'value': '+85517739337'}]}],Not Available,Kampot
Blue River Hotel,here:pds:place:116w64du-b1bae220b7c84c599a154e9380e47a46,en,here:cm:ontology:accommodation,"{'label': 'Blue River Hotel, ផ្លូវជាតិ 6អេ, 080705 មុខកំពូល, កម្ពុជា', 'countryCode': 'KHM', 'countryName': 'កម្ពុជា', 'county': 'កណ្ដាល', 'city': 'មុខកំពូល', 'district': 'ឫស្សីជ្រោយ', 'street': 'ផ្លូវជាតិ 6អេ', 'postalCode': '080705'}","{'lat': 11.78591, 'lng': 105.00249}","[{'lat': 11.78603, 'lng': 105.00255}]",48871,"[{'id': '500-5000-0053', 'name': 'Hotel', 'primary': True}]",,"[{'supplier': {'id': 'tripadvisor'}, 'id': '1484849'}]","[{'phone': [{'value': '+85523430155'}], 'www': [{'value': 'http://www.hotelblueriver.com'}]}]",Not Available,Kandal
Chomka Thnong Resort,here:pds:place:116w64dj-cee48eac39a278d6b7286eb4f226e9e0,en,here:cm:ontology:accommodation,"{'label': 'Chomka Thnong Resort, 080208 ខ្សាច់កណ្ដាល, កម្ពុជា', 'countryCode': 'KHM', 'countryName': 'កម្ពុជា', 'county': 'កណ្ដាល', 'city': 'ខ្សាច់កណ្ដាល', 'district': 'ព្រែកហ្លួង', 'postalCode': '080208'}","{'lat': 11.64259, 'lng': 105.01312}","[{'lat': 11.64249, 'lng': 105.01321}]",61616,"[{'id': '500-5000-0053', 'name': 'Hotel', 'primary': True}]",,"[{'supplier': {'id': 'tripadvisor'}, 'id': '27729400'}]","[{'phone': [{'value': '+85598858713'}], 'www': [{'value': 'https://www.facebook.com/chomkathnong'}]}]",Not Available,Kandal
Garden City Hotel Phnom Penh,here:pds:place:116w64dd-79ec702a14064190b5a1a634da950dfb,en,here:cm:ontology:accommodation,"{'label': 'Garden City Hotel Phnom Penh, 080706 មុខកំពូល, កម្ពុជា', 'countryCode': 'KHM', 'countryName': 'កម្ពុជា', 'county': 'កណ្ដាល', 'city': 'មុខកំពូល', 'district': 'សំបួរមាស', 'postalCode': '080706'}","{'lat': 11.69375, 'lng': 104.87475}","[{'lat': 11.69383, 'lng': 104.87486}]",65689,"[{'id': '500-5000-0053', 'name': 'Hotel', 'primary': True}]",,"[{'supplier': {'id': 'tripadvisor'}, 'id': '8686917'}]","[{'phone': [{'value': '+85567967333'}], 'www': [{'value': 'http://gardencityhotel.com.kh'}]}]",Not Available,Kandal
Garden Restaurant,here:pds:place:116aabd1-3d5ad7d7cb5501fb109a4b8ed7cc165f,en,here:cm:ontology:accommodation,"{'label': 'Garden Restaurant, 080706 មុខកំពូល, កម្ពុជា', 'countryCode': 'KHM', 'countryName': 'កម្ពុជា', 'county': 'កណ្ដាល', 'city': 'មុខកំពូល', 'district': 'សំបួរមាស', 'postalCode': '080706'}","{'lat': 11.69279, 'lng': 104.87404}","[{'lat': 11.69266, 'lng': 104.87399}]",65820,"[{'id': '500-5000-0053', 'name': 'Hotel', 'primary': True}, {'id': '100-1000-0000', 'name': 'Restaurant'}]","[{'id': '200-000', 'name': 'Asian', 'primary': True}, {'id': '300-000', 'name': 'European'}]","[{'supplier': {'id': 'tripadvisor'}, 'id': '12406193'}]",[{'phone': [{'value': '+85523900561'}]}],"[{'categories': [{'id': '100-1000-0000'}], 'text': ['Mon-Sun: 06:30 - 10:30, 11:30 - 14:30, 16:30 - 21:30'], 'isOpen': True, 'structured': [{'start': 'T063000', 'duration': 'PT04H00M', 'recurrence': 'FREQ:DAILY;BYDAY:MO,TU,WE,TH,FR,SA,SU'}, {'start': 'T113000', 'duration': 'PT03H00M', 'recurrence': 'FREQ:DAILY;BYDAY:MO,TU,WE,TH,FR,SA,SU'},